region,subvillage,longitude,latitude,gps_height,key
Arusha,Afya,36.611797742499995,-3.2992748215,1522.05,AfyaArusha
Arusha,Ahara,35.69874413,-2.1743774,1359.0,AharaArusha
Arusha,Alairataat,36.152924793333334,-2.8879630600000006,1670.3333333333333,AlairataatArusha
Arusha,Alakirikir,36.417293144,-2.434371454,1610.8,AlakirikirArusha
Arusha,Alasai,36.39363021,-3.24930342,1795.0,AlasaiArusha
Arusha,Aleilelai,35.700244245,-2.9581275624999996,2472.75,AleilelaiArusha
Arusha,Alsini,35.83732718,-3.2752822000000004,1547.0,AlsiniArusha
Arusha,Ambara,35.69700061,-3.52476155,1449.0,AmbaraArusha
Arusha,Ambureni,36.752441519,-3.364895498,1412.8,AmbureniArusha
Arusha,Arahati,35.610595585,-3.5246188524999997,1494.25,ArahatiArusha
Arusha,Arashi,35.50578716333333,-2.374830343333333,1905.3333333333333,ArashiArusha
Arusha,Arati,35.665071356666665,-3.4904984383333333,1384.1666666666667,AratiArusha
Arusha,Arauyo,36.88448798192307,-3.3180589192307695,1371.6923076923076,ArauyoArusha
Arusha,Ariahati,35.63843601,-3.53763724,1455.0,AriahatiArusha
Arusha,Arkaria,36.33948533833333,-3.3285749966666667,1464.0,ArkariaArusha
Arusha,Arudeko,36.88018984454545,-3.3680418872727276,1161.2727272727273,ArudekoArusha
Arusha,Ascarida,36.77979398,-2.543262,1315.0,AscaridaArusha
Arusha,Athin Kati,35.66681041,-3.4041645,1449.0,Athin KatiArusha
Arusha,Athni Mwisho,35.67359224,-3.42660474,1421.0,Athni MwishoArusha
Arusha,Atsin,35.83961593,-3.26822637,1607.0,AtsinArusha
Arusha,Atsini,35.836435085,-3.269311785,1581.5,AtsiniArusha
Arusha,Ayarati,35.66128416,-3.50233568,1380.0,AyaratiArusha
Arusha,Bagayu,35.69267098,-3.48596691,1364.5,BagayuArusha
Arusha,Baqari,35.65966485,-3.39250142,1441.0,BaqariArusha
Arusha,Barae,35.62401391,-3.47143149,1361.0,BaraeArusha
Arusha,Barai,35.8377038075,-3.2346592525,1843.25,BaraiArusha
Arusha,Baraka,35.901650075000006,-3.3487133725,976.0,BarakaArusha
Arusha,Barazani,35.66880742,-3.335385913333333,1530.0,BarazaniArusha
Arusha,Bare A,35.667009198,-3.4485182640000005,1390.6,Bare AArusha
Arusha,Barray,35.36786067333333,-3.534715906666667,1073.3333333333333,BarrayArusha
Arusha,Bodaboda,36.69087164,-3.49050984,1200.0,BodabodaArusha
Arusha,Bomba,35.95525902,-3.2197156166666665,1066.6666666666667,BombaArusha
Arusha,Bonde La Faru,35.882531404999995,-3.2156883499999998,1775.0,Bonde La FaruArusha
Arusha,Bondeni,36.82107677551724,-3.408743146206897,1228.5172413793102,BondeniArusha
Arusha,Bugharga,35.2982029,-3.5191361000000003,1029.0,BughargaArusha
Arusha,Buguruni,36.78672514466667,-2.551367922,1321.2,BuguruniArusha
Arusha,Bukarga,35.293842100000006,-3.51598399,1032.0,BukargaArusha
Arusha,Bulati,35.80210930333333,-2.9849626566666667,2566.3333333333335,BulatiArusha
Arusha,Buluga,36.842042660000004,-3.54056249,953.5,BulugaArusha
Arusha,Burka,36.64234653,-3.40903954,1325.0,BurkaArusha
Arusha,Bwawani,36.81552524066667,-3.2037961870000005,1455.0,BwawaniArusha
Arusha,Center,36.773369540625,-3.2838573343750004,1389.6875,CenterArusha
Arusha,Chemchem,36.79945483666667,-3.391687634,1205.4,ChemchemArusha
Arusha,Chini,36.92672133,-3.56338515,915.0,ChiniArusha
Arusha,Christmas,37.00367065,-3.35541575,974.0,ChristmasArusha
Arusha,Creta,35.6674934,-3.53162566,1454.0,CretaArusha
Arusha,D/Magaribi,35.60894098,-3.57680784,1530.0,D/MagaribiArusha
Arusha,D/Magharibi,35.5949178725,-3.577811525,1513.25,D/MagharibiArusha
Arusha,D/Mashariki,35.61727655125,-3.57884748,1529.0,D/MasharikiArusha
Arusha,Daire,36.84834799,-3.44303737,1030.0,DaireArusha
Arusha,Damu,36.78596935,-3.3447834066666666,1421.6666666666667,DamuArusha
Arusha,Daraja2,36.689861,-3.38695835,1333.0,Daraja2Arusha
Arusha,Darajani,35.78952531,-3.512133092,1101.2,DarajaniArusha
Arusha,Digodigo Mjini,35.73281417142857,-2.144703547142857,1296.2857142857142,Digodigo MjiniArusha
Arusha,Dipu,36.917662917499996,-3.5432735600000003,925.5,DipuArusha
Arusha,Dofa,35.61064690714285,-3.3648895128571428,1505.142857142857,DofaArusha
Arusha,Duka Bovu,36.485180936,-3.40554995,1301.2,Duka BovuArusha
Arusha,Dukambili,36.50134899,-3.410747505,1295.5,DukambiliArusha
Arusha,Dum,35.606789070000005,-3.61556209,1614.5,DumArusha
Arusha,Elerai,36.92989334333333,-3.0463824733333333,1483.0,EleraiArusha
Arusha,Elwahi,37.12328958,-2.856684117142857,1636.4285714285713,ElwahiArusha
Arusha,Elwan,36.68260445,-3.49266467,1206.0,ElwanArusha
Arusha,Elwayn,36.68154102,-3.4936589400000004,1207.0,ElwaynArusha
Arusha,Emanyata,36.5261929375,-3.2995443825,1665.0,EmanyataArusha
Arusha,Emarti,35.49675709,-2.23122984,2014.0,EmartiArusha
Arusha,Embalwa,36.69409030333333,-3.036282583333333,1405.6666666666667,EmbalwaArusha
Arusha,Embaruway,35.26505992857143,-3.2620726200000005,1685.7142857142858,EmbaruwayArusha
Arusha,Embong'Iti,36.884405965,-2.9737851600000003,1180.5,Embong'ItiArusha
Arusha,Embopong'I,36.541431079999995,-2.49398634,1730.5,Embopong'IArusha
Arusha,Emogoro,36.3609649,-3.33873986,1421.0,EmogoroArusha
Arusha,Emugurunanyoki,36.353210825,-3.3426029049999997,1436.0,EmugurunanyokiArusha
Arusha,Emurua,36.44832139,-3.08093797,1113.0,EmuruaArusha
Arusha,Emututoto,36.37665033,-2.35706977,1259.0,EmututotoArusha
Arusha,Enaboishu,36.70216692,-3.347510943333333,1476.0,EnaboishuArusha
Arusha,Endalah,35.729719216666666,-3.46843837,1321.3333333333333,EndalahArusha
Arusha,Endallah,35.7349846,-3.4633939366666664,1306.3333333333333,EndallahArusha
Arusha,Endamarariek,35.657813880000006,-3.514566445,1442.5,EndamarariekArusha
Arusha,Endeves,36.65852252416666,-3.5682985441666673,1065.5833333333333,EndevesArusha
Arusha,Endonyowas,35.69740290000001,-3.0531031533333333,2558.0,EndonyowasArusha
Arusha,Engarasero,35.875562625,-2.6054912349999997,679.0,EngaraseroArusha
Arusha,Engaresero,35.88554225,-2.63163848,695.0,EngareseroArusha
Arusha,Engasiti,35.969700035,-3.665985065,988.0,EngasitiArusha
Arusha,Engawale,36.58921539,-3.24989696,1737.0,EngawaleArusha
Arusha,Engedeko,36.727264274999996,-3.1544550233333335,2047.5,EngedekoArusha
Arusha,Engerin,36.566007905000006,-2.493848165,1663.0,EngerinArusha
Arusha,Engigiri,36.20615735,-3.39242769,1373.0,EngigiriArusha
Arusha,Engikaleti,36.73316618416667,-3.3291749616666664,1673.875,EngikaletiArusha
Arusha,Engloriti,36.18934024,-3.42239326,1289.0,EngloritiArusha
Arusha,Engololoi,36.58030851,-3.27845074,1652.0,EngololoiArusha
Arusha,Engomei,35.84342011,-2.8421616825,2326.75,EngomeiArusha
Arusha,Engorika,36.656655205,-3.2300827649999997,2148.5,EngorikaArusha
Arusha,Engorora Kati,36.549203915,-3.37035624,1382.5,Engorora KatiArusha
Arusha,Enguruman,35.51016386,-2.96789459,1324.0,EngurumanArusha
Arusha,Engusero,36.33457902,-2.98632961,990.0,EnguseroArusha
Arusha,Enguserosambu,35.6648962,-1.97992462,2233.5,EnguserosambuArusha
Arusha,Engutoto,36.445082854999995,-2.624315365,1648.5,EngutotoArusha
Arusha,Engutukoit,36.74339879833333,-3.0849048700000004,1436.3333333333333,EngutukoitArusha
Arusha,Engutukuorugos,36.454071305,-2.519443755,1718.0,EngutukuorugosArusha
Arusha,Enjolo Ondare,36.509144973999994,-3.2936625059999995,1728.2,Enjolo OndareArusha
Arusha,Erangau,37.06489092,-2.92533373,1733.0,ErangauArusha
Arusha,Esmiti,35.99938203,-3.48615125,1043.0,EsmitiArusha
Arusha,Eunoto,36.533098695,-3.29295275,1705.0,EunotoArusha
Arusha,Ewerendeke,36.77862138,-2.55618033,1302.0,EwerendekeArusha
Arusha,Eworendeke,36.76193346333333,-2.5704654349999996,1337.9166666666667,EworendekeArusha
Arusha,Fetinalii,36.636139820000004,-3.2053052,1829.6,FetinaliiArusha
Arusha,Fithal,35.85971441,-3.2566832100000003,1632.3333333333333,FithalArusha
Arusha,G,35.34982133,-3.54410547,1064.0,GArusha
Arusha,Geer,35.5985086,-3.6340279,1689.0,GeerArusha
Arusha,Gehandu,35.65919807,-3.61397484,1723.0,GehanduArusha
Arusha,Genda,35.804383792857145,-3.275495771428571,1656.0,GendaArusha
Arusha,Geriani,35.09559996,-3.361251245,1609.0,GerianiArusha
Arusha,Gidabash,35.29921917,-3.5272609299999997,1038.0,GidabashArusha
Arusha,Gidaburjek,35.30877299,-3.50653461,1036.0,GidaburjekArusha
Arusha,Gidbash,35.29898732,-3.52644973,1042.0,GidbashArusha
Arusha,Gidibashi,35.3029403,-3.52256131,1039.0,GidibashiArusha
Arusha,Gitmaja,35.589736200000004,-3.4338887099999997,1387.0,GitmajaArusha
Arusha,Gwandumehi,35.70173906,-3.38593155,1484.0,GwandumehiArusha
Arusha,Gwandumei,35.71183211,-3.38874279,1490.0,GwandumeiArusha
Arusha,Gwasei,36.75045767,-3.35055204,1518.5,GwaseiArusha
Arusha,Halei,35.64655137,-3.34005836,1497.0,HaleiArusha
Arusha,Halet,35.636601815,-3.34650506,1536.0,HaletArusha
Arusha,Hambar,35.698500265,-3.51907736,1419.0,HambarArusha
Arusha,Hansi,35.88096345,-3.2284528,1704.0,HansiArusha
Arusha,Haria B,35.74216372,-3.33420597,1505.0,Haria BArusha
Arusha,Hathins,35.87747054,-3.23958133,1714.0,HathinsArusha
Arusha,Hhaki,35.82011628,-3.29904362,1451.0,HhakiArusha
Arusha,Hhalki,35.82647009,-3.30790178,1380.0,HhalkiArusha
Arusha,Hharki,35.80973101,-3.28655328,1528.0,HharkiArusha
Arusha,Hospital,36.99531676400001,-3.32674965,1031.8,HospitalArusha
Arusha,Huduma,36.679845614499996,-3.36376532,1350.25,HudumaArusha
Arusha,Hyhh,36.01293837,-3.00261659,814.0,HyhhArusha
Arusha,Idulele,36.59446587666667,-3.2339321233333336,1814.6666666666667,IduleleArusha
Arusha,Ieletulele,36.690476124166665,-3.326925325833333,1579.3333333333333,IeletuleleArusha
Arusha,Ifuriny,36.77163994,-3.3497722866666666,1447.3333333333333,IfurinyArusha
Arusha,Ikenywa,36.68155626947368,-3.34166726,1502.0,IkenywaArusha
Arusha,Ikreepus,35.68896081,-3.09093416,2401.0,IkreepusArusha
Arusha,Ilboru,36.68841502600001,-3.350779294,1460.4,IlboruArusha
Arusha,Ilchang'Itsapu,36.20072648,-2.581027745,1150.5,Ilchang'ItsapuArusha
Arusha,Ildoinyio,36.96767400714286,-2.778094491428572,1137.2857142857142,IldoinyioArusha
Arusha,Ileza,36.68516393,-3.31311466,1646.5,IlezaArusha
Arusha,Ilimadu,36.708114875,-3.33146078,1747.5,IlimaduArusha
Arusha,Ilimelili,36.705314114,-3.3116428220000005,1819.8,IlimeliliArusha
Arusha,Ilimitongo,36.653386131,-3.5605409279999995,1081.3,IlimitongoArusha
Arusha,Ilimuri,35.44627732,-3.21274492,2491.0,IlimuriArusha
Arusha,Ilkiroriti,36.72406477,-3.347717505,1605.0,IlkiroritiArusha
Arusha,Ilkirumuni,36.91091791916667,-3.171903928333334,1454.0,IlkirumuniArusha
Arusha,Ilkisongo Chini,36.694998225,-3.310497686666667,1695.6666666666667,Ilkisongo ChiniArusha
Arusha,Ilkisongo Juu,36.69871661333334,-3.3040254566666665,1813.6666666666667,Ilkisongo JuuArusha
Arusha,Imbibia Kati,36.566749380000005,-3.2638477000000004,1797.5,Imbibia KatiArusha
Arusha,Imbopong,36.44094093,-3.13120529,1149.0,ImbopongArusha
Arusha,Imisigiyo,37.243009168571426,-2.842059,1589.0,ImisigiyoArusha
Arusha,Imurutot,37.369302733333335,-2.876996136666667,1837.6666666666667,ImurutotArusha
Arusha,Indiani,35.277992905,-3.188348275,1962.0,IndianiArusha
Arusha,Ing'Oswani,36.527673202500004,-2.842678405,1617.5,Ing'OswaniArusha
Arusha,Ingerin,36.5955397875,-2.49302400375,1586.375,IngerinArusha
Arusha,Inginye,36.234030434999994,-2.9343118075000003,1947.25,InginyeArusha
Arusha,Ingolienito,36.4807924,-3.36197835,1381.0,IngolienitoArusha
Arusha,Ingutot,36.29177455000001,-2.986101006666667,1061.0,IngutotArusha
Arusha,Ingutoti,36.28875302,-2.98322993,1094.0,IngutotiArusha
Arusha,Ingutoto,35.40799795,-3.21257259,2357.0,IngutotoArusha
Arusha,Insi,35.5933726,-3.382730973333333,1456.0,InsiArusha
Arusha,Inyuata,36.66825145599999,-3.353149088,1424.4,InyuataArusha
Arusha,Irkeepus,35.68979185,-3.0899931,2406.5,IrkeepusArusha
Arusha,Irkisale,36.41962339,-3.75992869,1472.0,IrkisaleArusha
Arusha,Iting'Are,36.962520135,-3.216056835,1356.5,Iting'AreArusha
Arusha,Iyani,36.848849737222224,-3.1455995038888886,1439.1666666666667,IyaniArusha
Arusha,Jamhuri,36.68824574,-3.38078323,1346.0,JamhuriArusha
Arusha,Jamusi,35.688221606666666,-2.294097916666667,1251.0,JamusiArusha
Arusha,Jamusi Ng'Ambo,35.68498603,-2.29260702,1256.0,Jamusi Ng'AmboArusha
Arusha,Jangwale,36.77470677,-3.1544204000000002,1978.5,JangwaleArusha
Arusha,Jangwani,35.854600536666666,-3.391288263333333,954.3333333333334,JangwaniArusha
Arusha,Jema,35.881829996,-2.1405927240000002,1197.0,JemaArusha
Arusha,Jengemwanama,36.71094552,-3.38766013,1334.0,JengemwanamaArusha
Arusha,Josho,36.67986869,-3.30566231,1666.0,JoshoArusha
Arusha,Juhudi,35.73401499,-3.36734949,1441.0,JuhudiArusha
Arusha,Juu,35.81556040636364,-3.2580931181818182,1619.4545454545455,JuuArusha
Arusha,K/Center,36.92097879777778,-3.358219172777778,1230.7777777777778,K/CenterArusha
Arusha,Kaepu,35.45579126,-3.22653601,2450.0,KaepuArusha
Arusha,Kaibuku,36.64708799625,-3.3030888737499997,1570.25,KaibukuArusha
Arusha,Kainam,35.68902774857143,-3.4414841414285715,1561.857142857143,KainamArusha
Arusha,Kalalanic,36.82401269,-3.36949326,1190.0,KalalanicArusha
Arusha,Kalimaji,36.718790205000005,-3.4536362840000003,1212.1,KalimajiArusha
Arusha,Kalimaji Kati,36.73035028,-3.43113663,1241.0,Kalimaji KatiArusha
Arusha,Kaloleni Mashariki,36.68998419,-3.36285021,1410.0,Kaloleni MasharikiArusha
Arusha,Kaloleni Mita 200,36.69003706,-3.3582865375,1427.75,Kaloleni Mita 200Arusha
Arusha,Kambarage,36.71650559,-3.40205382,1309.0,KambarageArusha
Arusha,Kambi Ya Fisi,36.674885544999995,-3.36643899,1393.5,Kambi Ya FisiArusha
Arusha,Kambi Ya Mkaa,36.879056202,-3.392306978,1044.8,Kambi Ya MkaaArusha
Arusha,Kambi Ya Simba,35.43158843,-3.48730058,1130.0,Kambi Ya SimbaArusha
Arusha,Kambi Ya Tanga Juu,36.91198931,-3.547789,918.0,Kambi Ya Tanga JuuArusha
Arusha,Kambiya Simba,35.46023688,-3.46491551,1154.0,Kambiya SimbaArusha
Arusha,Kandaskilieti,36.65384471272727,-3.2212311418181816,2073.7272727272725,KandaskilietiArusha
Arusha,Kanisani,36.707931015,-3.285020986428571,1250.5714285714287,KanisaniArusha
Arusha,Karafia,36.800424982500004,-3.16932448,1767.75,KarafiaArusha
Arusha,Karafiya,36.81035307,-3.16854552,1650.0,KarafiyaArusha
Arusha,Karatini,36.713093785,-3.32259497,1883.0,KaratiniArusha
Arusha,Karimaji,36.7176581625,-3.44321301,1231.0,KarimajiArusha
Arusha,Kaskazini,35.666472729999995,-2.805622752,1782.8,KaskaziniArusha
Arusha,Katani,37.11087388,-2.860896163333333,1655.3333333333333,KataniArusha
Arusha,Kati,36.295598294084506,-3.334756967605634,1384.338028169014,KatiArusha
Arusha,Kaveshi,36.966028144285715,-3.247787371428571,1313.857142857143,KaveshiArusha
Arusha,Kazamoyo,36.91359225,-3.57168304,922.0,KazamoyoArusha
Arusha,Keidofa,35.49672549,-3.3811027533333333,1606.6666666666667,KeidofaArusha
Arusha,Kereshu,36.79901398333333,-3.3367902133333334,1521.1666666666667,KereshuArusha
Arusha,Kibaoni,36.827638989,-3.5249881040000006,961.2,KibaoniArusha
Arusha,Kiboli,36.60112430666667,-3.241352473333334,1787.3333333333333,KiboliArusha
Arusha,Kibori,36.66844110142857,-3.3421778628571426,1482.7142857142858,KiboriArusha
Arusha,Kigongoni,35.95734315666667,-3.4635966758333336,1018.5833333333334,KigongoniArusha
Arusha,Kijave,36.739546286666666,-3.35225683,1536.3333333333333,KijaveArusha
Arusha,Kijenge,36.95481169,-3.41870087,1004.0,KijengeArusha
Arusha,Kijenge Chini,36.70640041,-3.37721807,1360.0,Kijenge ChiniArusha
Arusha,Kijenge Juu,36.70860813,-3.36879551,1424.0,Kijenge JuuArusha
Arusha,Kijijini,35.773278330000004,-2.1328146660000002,1261.6,KijijiniArusha
Arusha,Kijiweni,37.347201725000005,-2.8665650649999996,1748.5,KijiweniArusha
Arusha,Kikwakwaru,36.695275734999996,-3.3989703650000003,1306.5,KikwakwaruArusha
Arusha,Kilala Nic,36.82217243,-3.37023271,1194.0,Kilala NicArusha
Arusha,Kilalanic,36.825850921,-3.3747155260000006,1197.9,KilalanicArusha
Arusha,Kilima Moja,36.903248160000004,-3.4184301450000003,1038.0,Kilima MojaArusha
Arusha,Kilimamoto,36.6193579,-3.2698351900000002,1624.5,KilimamotoArusha
Arusha,Kilimani,36.68150944,-3.40753686,1282.0,KilimaniArusha
Arusha,Kilimo,36.64733942,-3.29458643,1584.0,KilimoArusha
Arusha,Kiloshi,36.73423704,-3.37780715,1370.0,KiloshiArusha
Arusha,Kimandafu,36.918019355,-3.382590069,1184.4,KimandafuArusha
Arusha,Kimandolu,36.837884769999995,-3.3190739116666665,1527.5,KimandoluArusha
Arusha,Kimeroki,36.7212627275,-3.32682806875,1690.5,KimerokiArusha
Arusha,Kimnyak,36.65670893,-3.30921425,1569.0,KimnyakArusha
Arusha,Kimoli,36.60803605,-3.24181647,1734.0,KimoliArusha
Arusha,Kimosonu,36.86865614772727,-3.1339683718181814,1401.5454545454545,KimosonuArusha
Arusha,Kimundo,36.78185998666667,-3.3482218866666664,1427.6666666666667,KimundoArusha
Arusha,Kimwati,36.51030125666667,-2.43255973,1763.3333333333333,KimwatiArusha
Arusha,Kinehe,35.66301588,-3.37087643,1502.0,KineheArusha
Arusha,King'Una,36.212918342500004,-2.9315997224999997,2028.25,King'UnaArusha
Arusha,Kinihe,35.6520756775,-3.3880600475000002,1525.0,KiniheArusha
Arusha,Kirangi,35.7658317,-2.1320712133333335,1261.3333333333333,KirangiArusha
Arusha,Kirashi,35.70134796,-2.29661458,1224.0,KirashiArusha
Arusha,Kireeni,36.859667547,-3.178765313,1441.9,KireeniArusha
Arusha,Kirika B,36.65870108,-3.38504519,1333.0,Kirika BArusha
Arusha,Kirima,36.83241431,-3.34721578,1310.0,KirimaArusha
Arusha,Kirurumo,35.84528816,-3.36873416,969.0,KirurumoArusha
Arusha,Kisambare,36.84983935666666,-3.3792650233333332,1150.6666666666667,KisambareArusha
Arusha,Kiseli,35.42390981,-2.66330448,1790.0,KiseliArusha
Arusha,Kiselya,36.74625621250001,-3.4375334983333325,1248.1666666666667,KiselyaArusha
Arusha,Kisiwani,36.826302835,-3.3051815700000002,1628.5,KisiwaniArusha
Arusha,Kisongo,36.78820528,-2.5481788200000004,1335.5,KisongoArusha
Arusha,Kisongo Chini,36.69879469,-3.31207255,1736.0,Kisongo ChiniArusha
Arusha,Kisongo Juu,36.69857523,-3.30654386,1769.0,Kisongo JuuArusha
Arusha,Kisutu,35.85458727,-3.36711033,966.0,KisutuArusha
Arusha,Kitarini,36.463708654,-2.621793544,1713.4,KitariniArusha
Arusha,Kitendo,36.6504945875,-3.3099188575,1550.25,KitendoArusha
Arusha,Kitong'Wa,36.69254058,-3.47503858,1225.0,Kitong'WaArusha
Arusha,Kitongojini,36.86191743,-3.5010900449999998,958.0,KitongojiniArusha
Arusha,Kitongwaa,36.69653563,-3.47312257,1224.0,KitongwaaArusha
Arusha,Kitosokoine,36.59194966666667,-3.6332099066666665,1170.3333333333333,KitosokoineArusha
Arusha,Kituma,35.91000722,-3.1717813060000006,1802.4,KitumaArusha
Arusha,Kiutu,36.71332359235294,-3.350234778235294,1537.4117647058824,KiutuArusha
Arusha,Kives,36.734282609999994,-3.355152065,1515.5,KivesArusha
Arusha,Kiwabdani,35.67015578,-3.32451076,1542.0,KiwabdaniArusha
Arusha,Kiwandani,35.667695153333334,-3.3265627766666666,1532.0,KiwandaniArusha
Arusha,Kiwanja,35.55633593,-3.3526647279999997,1479.2,KiwanjaArusha
Arusha,Kiwawa,36.87524247,-3.3440491249999997,1219.5,KiwawaArusha
Arusha,Kolila,37.04744811714286,-3.342852925714286,987.7142857142857,KolilaArusha
Arusha,Kombo,36.81001095333334,-3.323411533333333,1626.0,KomboArusha
Arusha,Komoro,36.9330025575,-3.5583685550000004,912.25,KomoroArusha
Arusha,Komwex,35.577162015,-3.3826957049999997,1419.5,KomwexArusha
Arusha,Korea,35.85166788,-3.36645411,967.0,KoreaArusha
Arusha,Korona,36.950379585,-3.5298344,912.5,KoronaArusha
Arusha,Korongoni,36.70443725333333,-3.4419812933333334,1236.0,KorongoniArusha
Arusha,Kroma,35.57831796000001,-3.391221625,1414.0,KromaArusha
Arusha,Kulila,37.05136972,-3.3426042,986.0,KulilaArusha
Arusha,Kurinjaa,35.4599562,-2.18137492,1893.0,KurinjaaArusha
Arusha,Kusini,35.687491009999995,-3.3275345366666667,1509.8333333333333,KusiniArusha
Arusha,Kwa Kirenga,36.97536586,-3.2938011840000003,1164.0,Kwa KirengaArusha
Arusha,Kwa Masika,36.987958415,-3.3066748825,1093.5,Kwa MasikaArusha
Arusha,Kwa Philipo,36.969687474285706,-3.324614665714286,1235.2857142857142,Kwa PhilipoArusha
Arusha,Kwa Tulele,36.98448775714286,-3.2729345785714288,1198.142857142857,Kwa TuleleArusha
Arusha,Kwalock,36.880734865,-3.1463537625000004,1418.25,KwalockArusha
Arusha,Kwaniche,36.749772568000004,-3.35647309,1469.2,KwanicheArusha
Arusha,Kware,36.661631973333336,-3.363214976666667,1401.3333333333333,KwareArusha
Arusha,Kwatulele,36.97253697,-3.26404973,1260.0,KwatuleleArusha
Arusha,Kyamakata,36.854102187500004,-3.1348295562499997,1417.75,KyamakataArusha
Arusha,Kyaraa,36.792896335,-3.3512306575,1370.5,KyaraaArusha
Arusha,Kyuta,36.822665741111116,-3.308624703333334,1666.7777777777778,KyutaArusha
Arusha,Laiza,36.73349896,-3.4159672183333334,1288.6666666666667,LaizaArusha
Arusha,Laizer,36.722412385,-3.3355805700000003,1626.0,LaizerArusha
Arusha,Lakeko,36.66020597,-3.30325979,1607.0,LakekoArusha
Arusha,Lamayana,36.60572127,-3.32229166,1396.0,LamayanaArusha
Arusha,Lamuloki,36.83425706,-3.574120315,938.0,LamulokiArusha
Arusha,Langata,36.482266370000005,-2.5388810250000002,1679.5,LangataArusha
Arusha,Langidare,36.727539603333334,-3.35762765,1527.6666666666667,LangidareArusha
Arusha,Lapalasek,35.99658694,-3.01358059,840.0,LapalasekArusha
Arusha,Larikaria,36.25691633,-2.90160768,2192.0,LarikariaArusha
Arusha,Larkaria,36.255584192,-2.914989152,2149.4,LarkariaArusha
Arusha,Larmaroro,36.43244570833333,-3.22891516,1941.5,LarmaroroArusha
Arusha,Latimi,35.93486184,-3.33536007,1003.0,LatimiArusha
Arusha,Lebusha,36.69198754333333,-3.3431509583333336,1492.8333333333333,LebushaArusha
Arusha,Leganga,36.846801409,-3.3693966439999996,1180.0,LegangaArusha
Arusha,Leinevuni,36.6550199,-3.30345373,1581.0,LeinevuniArusha
Arusha,Lekako,36.658323591249996,-3.30306916375,1619.0,LekakoArusha
Arusha,Lelek,36.554039700000004,-2.6392802566666664,1472.0,LelekArusha
Arusha,Leleki,36.51388923,-2.65649583,1519.0,LelekiArusha
Arusha,Lemanda,36.67884735714285,-3.15314168,1772.142857142857,LemandaArusha
Arusha,Lemanyata,36.6270882725,-3.2634525524999995,1656.0,LemanyataArusha
Arusha,Lembashishi,36.577630235,-3.3019154750000004,1539.5,LembashishiArusha
Arusha,Lemedei,36.780503466666666,-3.5598461333333336,967.3333333333334,LemedeiArusha
Arusha,Lemgulu,36.561270752,-3.428442048,1317.8,LemguluArusha
Arusha,Lemioni,36.09974174,-3.56386655,1051.5,LemioniArusha
Arusha,Lendavunye,36.65770493666667,-3.3065709033333337,1603.0,LendavunyeArusha
Arusha,Lendoiya,36.887887416,-3.19774105,1507.0666666666666,LendoiyaArusha
Arusha,Lengare,36.81848651583333,-3.1732063258333336,1601.6666666666667,LengareArusha
Arusha,Lengeni,36.47446679,-3.30949613,1559.0,LengeniArusha
Arusha,Lengine,36.477197045,-3.312506205,1585.0,LengineArusha
Arusha,Lengipima,35.908211824,-3.1837698780000006,1813.6,LengipimaArusha
Arusha,Lengitima,35.904918815,-3.1932707650000003,1761.0,LengitimaArusha
Arusha,Lenjani,36.63776348333333,-3.2695330833333336,1741.0,LenjaniArusha
Arusha,Leparieti,36.649132086,-3.3278781139999998,1524.6,LeparietiArusha
Arusha,Leparumet,36.6483334025,-3.3306166925,1528.25,LeparumetArusha
Arusha,Lepayoni,37.360712665,-2.8714902975000003,1797.5,LepayoniArusha
Arusha,Lepoloseki,36.30105756181819,-2.80906849,1202.2727272727273,LepolosekiArusha
Arusha,Lepolosi,37.257441687500005,-2.8411171049999995,1529.25,LepolosiArusha
Arusha,Lerai,36.92389620666666,-3.3133068433333333,1271.0,LeraiArusha
Arusha,Lerai Kati,36.9126757,-3.3526473,1233.5,Lerai KatiArusha
Arusha,Lerang'Wa,37.210906617692316,-2.8428489169230766,1635.0,Lerang'WaArusha
Arusha,Leremeta,36.96541312,-2.72271784,1131.5,LeremetaArusha
Arusha,Lesala,36.47485622,-3.30168425,1620.0,LesalaArusha
Arusha,Leshabala,36.69560219166666,-3.347793773333333,1474.6666666666667,LeshabalaArusha
Arusha,Leshabale,36.6991465425,-3.3472687875,1468.75,LeshabaleArusha
Arusha,Leshobale,36.69839609,-3.34886505,1465.0,LeshobaleArusha
Arusha,Lesimanga,36.684428452000006,-3.348507886,1458.8,LesimangaArusha
Arusha,Lesoit,36.723630505,-3.4667042099999996,1179.75,LesoitArusha
Arusha,Lesoiti,36.788786318,-2.581919436,1273.0,LesoitiArusha
Arusha,Letaiyo,36.7018372,-3.4702759,1245.5,LetaiyoArusha
Arusha,Levolos Mita 200,36.68266629,-3.35952195,1429.0,Levolos Mita 200Arusha
Arusha,Likamba,36.554545114999996,-3.33216665,1476.0,LikambaArusha
Arusha,Lobolosi,36.74299691,-3.33344008,1636.0,LobolosiArusha
Arusha,Lobon,36.548914204999996,-3.3216270725,1521.75,LobonArusha
Arusha,Lobora,36.690760499999996,-3.3527124075,1438.5,LoboraArusha
Arusha,Lobulu,36.68400009666667,-3.3249068966666666,1571.6666666666667,LobuluArusha
Arusha,Loibangoti,36.664934755000004,-3.32515668,1589.5,LoibangotiArusha
Arusha,Lolera,36.91382156,-3.21073991,1441.0,LoleraArusha
Arusha,Lolimotonya,36.63249016,-3.252258125,1749.0,LolimotonyaArusha
Arusha,Lolimotonyi,36.62898297,-3.24746145,1710.0,LolimotonyiArusha
Arusha,Loliondo,35.625000632,-2.0507649379999995,2157.8,LoliondoArusha
Arusha,Lolkisale A,36.42121872,-3.76660778,1480.0,Lolkisale AArusha
Arusha,Lolkisale B,36.41923519,-3.76135624,1487.0,Lolkisale BArusha
Arusha,Loloboini,36.70381754,-2.65489746,1359.0,LoloboiniArusha
Arusha,Loloboni,36.70039825,-2.63760992,1394.0,LoloboniArusha
Arusha,Loloiboni,36.69822082666666,-2.6432734983333335,1373.6666666666667,LoloiboniArusha
Arusha,Lolomotonyi,36.63107585,-3.251405295,1763.0,LolomotonyiArusha
Arusha,Lolopon,36.51988825666667,-3.3225408566666665,1556.3333333333333,LoloponArusha
Arusha,Lolovono,36.66704121,-3.39962787,1313.0,LolovonoArusha
Arusha,Lomishila,36.576672656666666,-3.31520228,1532.8333333333333,LomishilaArusha
Arusha,Longdong,36.67596786,-3.4037678,1291.0,LongdongArusha
Arusha,Longido,36.64126126666667,-3.311815656666667,1520.6666666666667,LongidoArusha
Arusha,Longido Sec Sc,36.70648554,-2.73183015,1359.0,Longido Sec ScArusha
Arusha,Longolu,36.673798164,-3.337193368,1506.0,LongoluArusha
Arusha,Longululu,36.526814861764706,-3.396525179411765,1345.4117647058824,LongululuArusha
Arusha,Longuluyo,36.533717415,-3.40280212,1338.0,LonguluyoArusha
Arusha,Loolturot,36.203750928,-2.84301425,2177.2,LoolturotArusha
Arusha,Loomunyi,35.55021282,-3.05369396,2046.0,LoomunyiArusha
Arusha,Loosikito,36.68497568,-2.76592684,1288.0,LoosikitoArusha
Arusha,Lopulin,35.54200998,-2.08192942,2037.0,LopulinArusha
Arusha,Loseiya,36.940894543333336,-3.2367313066666665,1369.6666666666667,LoseiyaArusha
Arusha,Loshuwash,35.41718677666667,-2.00670101,1940.3333333333333,LoshuwashArusha
Arusha,Losikito,36.22616886,-3.35345436,1508.0,LosikitoArusha
Arusha,Losilo,36.56626251,-3.287526215,1653.0,LosiloArusha
Arusha,Losingila,36.50569835,-3.39450725,1345.0,LosingilaArusha
Arusha,Losingirani,36.48347446,-3.3969473,1326.0,LosingiraniArusha
Arusha,Losinoni,36.570952686666665,-3.244074715555556,1630.3333333333333,LosinoniArusha
Arusha,Losinoni Juu,36.744898918888886,-3.1437211577777777,1798.7777777777778,Losinoni JuuArusha
Arusha,Losirwa,35.9073151125,-3.39215222,989.375,LosirwaArusha
Arusha,Lositeti,36.4692873,-3.3197650000000003,1510.0,LositetiArusha
Arusha,Losrway,36.74362360000001,-3.41198612,1301.0,LosrwayArusha
Arusha,Losuwashi,35.41714744,-2.00724309,1941.0,LosuwashiArusha
Arusha,Lovilikuny,36.54455441,-3.40429121,1366.0,LovilikunyArusha
Arusha,Lovilukuny,36.5399675,-3.406022845,1361.0,LovilukunyArusha
Arusha,Lunesela,36.8105092,-3.44790957,1059.0,LuneselaArusha
Arusha,Luwai,36.772065207500006,-3.14626047375,1851.375,LuwaiArusha
Arusha,Maangalio,36.920824198000005,-3.2575960960000003,1453.7,MaangalioArusha
Arusha,Mabatini,36.951343765000004,-3.522431405,915.5,MabatiniArusha
Arusha,Madukan,35.27336608,-3.20404472,1900.0,MadukanArusha
Arusha,Madukani,36.33263877464002,-2.955319715680002,1422.728,MadukaniArusha
Arusha,Magadini,36.84615403,-3.3850676766666665,1135.6666666666667,MagadiniArusha
Arusha,Magadirisho,36.85533053,-3.35990678,1179.0714285714287,MagadirishoArusha
Arusha,Maganyo,35.311157269999995,-3.52469338,1043.3333333333333,MaganyoArusha
Arusha,Magharibi,35.65676157777778,-2.756490784444444,1794.3333333333333,MagharibiArusha
Arusha,Magomeni,35.85575812333334,-3.3825211233333334,957.6666666666666,MagomeniArusha
Arusha,Maifora,35.33220883,-3.50783474,1033.0,MaiforaArusha
Arusha,Maina,36.663796242000004,-3.299144934,1656.4,MainaArusha
Arusha,Mairowa,35.36936827,-1.86754909,1909.0,MairowaArusha
Arusha,Mairowa B,35.367323060000004,-1.86126447,1886.0,Mairowa BArusha
Arusha,Majengo,36.80360124333333,-3.467015468666666,1059.6666666666667,MajengoArusha
Arusha,Majengo A,35.8632075325,-3.3420783775,970.5,Majengo AArusha
Arusha,Majengo B,35.86371336,-3.33719174,969.0,Majengo BArusha
Arusha,Majengo C,35.865884347999994,-3.355603908,962.8,Majengo CArusha
Arusha,Majengo Chini,36.65805282,-3.37498307,1380.0,Majengo ChiniArusha
Arusha,Majengo D,35.86116443,-3.32166199,980.0,Majengo DArusha
Arusha,Maji Ya Chai,36.90234986,-3.36969747,1197.0,Maji Ya ChaiArusha
Arusha,Maji Ya Chai Kati,36.9073072417647,-3.367831824705882,1211.0,Maji Ya Chai KatiArusha
Arusha,Makaburi Ya Baniani,36.675342586666666,-3.3745854066666663,1373.0,Makaburi Ya BanianiArusha
Arusha,Makanyo,35.30681809,-3.52436682,1040.0,MakanyoArusha
Arusha,Makao Mapya,36.79651786666667,-3.4495995666666666,1078.6666666666667,Makao MapyaArusha
Arusha,Makisoro,36.774742405,-3.385680245,1268.5,MakisoroArusha
Arusha,Makivaru,36.98782754,-3.2545556,1251.0,MakivaruArusha
Arusha,Makiwaru,36.989507655,-3.2540689075,1259.75,MakiwaruArusha
Arusha,Makuyuni,36.098096114375004,-3.5502798143749996,1062.6875,MakuyuniArusha
Arusha,Malanja,35.459362945,-3.17225062,2165.0,MalanjaArusha
Arusha,Maleu,36.69592037545454,-3.158386562727273,1866.6363636363637,MaleuArusha
Arusha,Maliyasili,35.67820973,-3.35161279,1495.0,MaliyasiliArusha
Arusha,Maliyasiri,35.672320686666666,-3.353381923333334,1504.0,MaliyasiriArusha
Arusha,Maloloi,36.774720496,-3.461683017,1071.7,MaloloiArusha
Arusha,Maloon,35.578274205,-2.246298905,1823.5,MaloonArusha
Arusha,Malula Mjini,37.015310660000004,-3.3740254299999997,937.0,Malula MjiniArusha
Arusha,Mamuna,36.87511422,-3.3162077733333333,1363.1666666666667,MamunaArusha
Arusha,Manang,35.706564207999996,-2.484666942,1140.6,ManangArusha
Arusha,Mandagati,35.39964073,-3.50340974,1115.0,MandagatiArusha
Arusha,Mangashini,37.02730473,-3.318914855,1062.0,MangashiniArusha
Arusha,Mangisa,35.627247694999994,-3.561112545,1507.0,MangisaArusha
Arusha,Mangula,36.33385703571428,-2.85847543,1168.142857142857,MangulaArusha
Arusha,Manguva,36.798167160000006,-3.32753436,1660.0,ManguvaArusha
Arusha,Manguwa,36.79836516,-3.32612987,1654.0,ManguwaArusha
Arusha,Mangwa,36.714097385,-3.3278226125,1826.75,MangwaArusha
Arusha,Manusai,35.74184848666667,-3.454554163333333,1290.0,ManusaiArusha
Arusha,Manyara,36.617702855,-3.32291109,1460.5,ManyaraArusha
Arusha,Manyata,36.99287339,-3.2969345150000002,1105.0,ManyataArusha
Arusha,Manyati,36.99697793,-3.30489439,1088.0,ManyatiArusha
Arusha,Manyile,36.77549600333334,-3.3691128666666668,1327.3333333333333,ManyileArusha
Arusha,Mapera,36.73565764,-3.36362021,1437.6666666666667,MaperaArusha
Arusha,Marera,35.7154522375,-3.300179945,1560.75,MareraArusha
Arusha,Marere,35.723470657499995,-3.304942165,1553.5,MarereArusha
Arusha,Mareu Kati,36.971889745000006,-3.3150961125000005,1185.875,Mareu KatiArusha
Arusha,Marikanda,36.690246965,-3.347449505,1460.5,MarikandaArusha
Arusha,Maring'A,36.78385999272727,-3.358675076363636,1379.5454545454545,Maring'AArusha
Arusha,Marongoroni,35.69371559,-2.29296963,1237.0,MarongoroniArusha
Arusha,Marti,35.49655536,-2.23100665,2016.0,MartiArusha
Arusha,Marurani Juu,36.81119685882353,-3.47970687132353,1007.6470588235294,Marurani JuuArusha
Arusha,Marurani Kati,36.82351453029851,-3.491697085373135,977.9701492537314,Marurani KatiArusha
Arusha,Marurani Kusini,36.84666545705882,-3.5115846664705876,959.4705882352941,Marurani KusiniArusha
Arusha,Masabeda,35.708284095,-3.4573445525000004,1401.5,MasabedaArusha
Arusha,Masaga,36.683120356,-3.30490061,1678.2,MasagaArusha
Arusha,Masaini,36.77916716875,-3.5361273475,986.75,MasainiArusha
Arusha,Masale,36.896609415,-3.37727925,1167.0,MasaleArusha
Arusha,Maseda,35.3095416,-3.51961687,1040.0,MasedaArusha
Arusha,Mashariki,35.702743695,-3.310498345,1492.25,MasharikiArusha
Arusha,Mashono Kaskazini,36.741814704999996,-3.391981545,1343.5,Mashono KaskaziniArusha
Arusha,Masiel,35.31199794,-3.51884295,1042.0,MasielArusha
Arusha,Masihi,35.87943722,-2.9426578,2294.0,MasihiArusha
Arusha,Matani,36.80280298,-2.58697899,1241.0,MataniArusha
Arusha,Matasa,36.56030148,-3.38382616,1344.0,MatasaArusha
Arusha,Matasy,36.56853821333333,-3.3787042799999996,1369.6666666666667,MatasyArusha
Arusha,Matene,36.79301810000001,-2.56252446,1300.0,MateneArusha
Arusha,Matiani,36.82019807571429,-2.5962683485714284,1241.7142857142858,MatianiArusha
Arusha,Matini,36.641669414210526,-3.262197735263157,1772.9473684210527,MatiniArusha
Arusha,Maurani,36.655894780000004,-3.1511383399999997,1691.0833333333333,MauraniArusha
Arusha,Mavinuni,36.790832638333335,-3.3612467858333335,1324.25,MavinuniArusha
Arusha,Maziwa,36.8535826775,-3.454259595,1009.5,MaziwaArusha
Arusha,Mbaaseny,36.94816050571428,-3.250743994285714,1335.2857142857142,MbaasenyArusha
Arusha,Mbalwa,36.69382123,-3.03566371,1403.0,MbalwaArusha
Arusha,Mbasha,35.5773347,-2.11853216,1963.0,MbashaArusha
Arusha,Mbeshere,36.70797002,-3.38434205,1360.0,MbeshereArusha
Arusha,Mbobgiti,36.8851758,-2.97526444,1178.0,MbobgitiArusha
Arusha,Mbolele,36.803600235000005,-3.3151277950000004,1732.0,MboleleArusha
Arusha,Mbonde Lafaru,35.87873549,-3.2227385,1769.0,Mbonde LafaruArusha
Arusha,Mbugani,36.67838714,-3.38327643,1342.0,MbuganiArusha
Arusha,Mbuganii,36.67869908,-3.38486112,1365.0,MbuganiiArusha
Arusha,Mbukala,36.588140245,-3.272884745,1610.5,MbukalaArusha
Arusha,Mbukeni,35.506931088,-2.319098582,1860.4,MbukeniArusha
Arusha,Mbuni,36.73346704,-3.4549796,1215.0,MbuniArusha
Arusha,Mburyashi,36.91713707,-3.3211589700000004,1296.0,MburyashiArusha
Arusha,Mbuyuni,35.382793684285716,-3.5212718128571425,1090.7142857142858,MbuyuniArusha
Arusha,Mebaku,36.654853294,-3.3343851659999997,1528.8,MebakuArusha
Arusha,Meduti,36.68431136,-3.29035932,1779.0,MedutiArusha
Arusha,Mefurda,35.624071380000004,-3.3594076499999996,1521.0,MefurdaArusha
Arusha,Melebuki,36.657081905000005,-3.3248569216666666,1555.5,MelebukiArusha
Arusha,Melenyi,36.74608198,-3.34304163,1570.0,MelenyiArusha
Arusha,Mende,35.624658287142864,-3.398293231428571,1442.5714285714287,MendeArusha
Arusha,Meshili,35.515840055714285,-2.86051691,1434.7142857142858,MeshiliArusha
Arusha,Metto,36.825169034285715,-3.3257087028571424,1478.142857142857,MettoArusha
Arusha,Mfulony,36.770750315,-3.3330154199999997,1565.0,MfulonyArusha
Arusha,Mgholo,35.752826606666666,-2.1377162666666663,1291.6666666666667,MgholoArusha
Arusha,Mguu Wa Zuberi,36.252915724999994,-3.394315465,1488.5,Mguu Wa ZuberiArusha
Arusha,Miembeni,36.88191796,-3.52201154,939.0,MiembeniArusha
Arusha,Migombani Chini,35.85782070000001,-3.36156571,960.0,Migombani ChiniArusha
Arusha,Migombani Juu,35.84493949833334,-3.3411060150000007,1025.8333333333333,Migombani JuuArusha
Arusha,Migombani Kati,35.85108262,-3.35913949,970.0,Migombani KatiArusha
Arusha,Migungani,35.603782895,-3.38124475,1012.5,MigunganiArusha
Arusha,Migungani A,35.873013525000005,-3.3770702850000003,964.5,Migungani AArusha
Arusha,Migungani C,35.86167168,-3.39227991,960.0,Migungani CArusha
Arusha,Mijuti,35.696446449999996,-2.16119459,1340.5,MijutiArusha
Arusha,Milongoine,36.60058454,-3.41567525,1370.0,MilongoineArusha
Arusha,Mishili,35.57437405,-2.13286454,1964.0,MishiliArusha
Arusha,Mishiri,35.57339532,-2.13376229,1953.0,MishiriArusha
Arusha,Misigyo,35.36884968333334,-3.2038339866666665,2298.6666666666665,MisigyoArusha
Arusha,Mitaloni,36.664423155,-3.3063629050000003,1630.0,MitaloniArusha
Arusha,Mjini,36.93979365571429,-3.381622139047618,1093.904761904762,MjiniArusha
Arusha,Mjini Kati,36.68571714,-3.37002748,1393.0,Mjini KatiArusha
Arusha,Mkao,37.180265542,-2.8364982430000003,1616.1,MkaoArusha
Arusha,Mkaoo,35.995688353333335,-2.9959065133333334,840.0,MkaooArusha
Arusha,Mkulima,37.32628280800001,-2.8637186399999996,1686.0,MkulimaArusha
Arusha,Mkuru,36.79736587785714,-3.119513776428571,1533.857142857143,MkuruArusha
Arusha,Mlangarini,36.608548743750006,-3.31290450375,1475.5,MlangariniArusha
Arusha,Mlangarini Kati,36.787672701000005,-3.440858219,1093.75,Mlangarini KatiArusha
Arusha,Mlimani,36.83387566096775,-3.3728766977419364,1177.1935483870968,MlimaniArusha
Arusha,Mlimani Farm,36.580063886666665,-3.4341017566666667,1348.3333333333333,Mlimani FarmArusha
Arusha,Mlimani Park,36.60182609333334,-3.113860385,1397.8333333333333,Mlimani ParkArusha
Arusha,Mlimini,36.932262019999996,-3.367887075,1192.0,MliminiArusha
Arusha,Mlombeni,36.95021045,-3.24404579,1326.0,MlombeniArusha
Arusha,Moikane,36.67695344,-3.35521506,1427.0,MoikaneArusha
Arusha,Moikani,36.67720508285714,-3.3519042985714287,1434.142857142857,MoikaniArusha
Arusha,Moilo,36.642974638333335,-3.3086263233333333,1540.1666666666667,MoiloArusha
Arusha,Moivaro,36.76174521058823,-3.385747889117647,1286.0294117647059,MoivaroArusha
Arusha,Moklani,35.42324003,-3.22869617,2509.0,MoklaniArusha
Arusha,Momela,36.862937099999996,-3.2160868485714285,1519.7142857142858,MomelaArusha
Arusha,Mondoros,35.488704985,-1.8937442525000001,2021.5,MondorosArusha
Arusha,Moniki,35.89087680333333,-2.4945640866666667,625.0,MonikiArusha
Arusha,Mooton,36.169961365999995,-2.86950268,1867.4,MootonArusha
Arusha,Mousuyani,36.1801454,-3.39400173,1345.0,MousuyaniArusha
Arusha,Mpakani,36.6613391675,-3.2876078950000003,1671.75,MpakaniArusha
Arusha,Mpomeni,35.368158230000006,-3.5411555850000003,1088.0,MpomeniArusha
Arusha,Mrangarini,35.336953050000005,-3.5113906750000003,1037.5,MrangariniArusha
Arusha,Mringa Msingi,36.638613012,-3.3270224580000005,1470.6,Mringa MsingiArusha
Arusha,Mringa Sekondari,36.629894222666664,-3.3228388453333335,1473.6,Mringa SekondariArusha
Arusha,Msamanene,36.90790628,-3.31582967,1322.0,MsamaneneArusha
Arusha,Msamaneni,36.90050562571428,-3.3188879357142858,1318.4285714285713,MsamaneniArusha
Arusha,Mseseweni,36.905998520000004,-3.32971376,1300.0,MseseweniArusha
Arusha,Mshaloni,37.1379492425,-2.8515680125,1706.0,MshaloniArusha
Arusha,Msngula,36.33158043,-2.85403536,1191.0,MsngulaArusha
Arusha,Msumbiji,36.84259544909091,-3.491785967272726,970.1363636363636,MsumbijiArusha
Arusha,Mswakini,35.318126315,-3.50221392,1028.0,MswakiniArusha
Arusha,Mswakini Kati,36.01125274,-3.63262125,1028.0,Mswakini KatiArusha
Arusha,Mtaa Wa Darajani,36.67346831,-3.3714325,1391.0,Mtaa Wa DarajaniArusha
Arusha,Mtaawasaba,36.7808502,-2.5472966520000004,1315.6,MtaawasabaArusha
Arusha,Mteriani,36.68512325,-3.28769142,1804.0,MterianiArusha
Arusha,Mti Mmoja,36.31556321,-3.41055475,1427.0,Mti MmojaArusha
Arusha,Mtongwaa,36.69667679,-3.47315327,1229.0,MtongwaaArusha
Arusha,Mtoni,36.86795356444444,-3.40891849,1152.888888888889,MtoniArusha
Arusha,Mtoni Kati,36.72084069,-3.41729168,1274.0,Mtoni KatiArusha
Arusha,Mujiti,35.69508427,-2.16243842,1356.0,MujitiArusha
Arusha,Mukulati,36.54716932,-3.26421738,1773.0,MukulatiArusha
Arusha,Mula,36.637556754,-3.299731844000001,1448.8,MulaArusha
Arusha,Munga,36.69233104,-3.2965288166666666,1739.6666666666667,MungaArusha
Arusha,Munge,35.70533967857143,-3.021380648571429,2616.1428571428573,MungeArusha
Arusha,Mungere,35.89218572,-3.31199538,985.5,MungereArusha
Arusha,Muraiweni,36.768396919999994,-3.3657382133333336,1370.3333333333333,MuraiweniArusha
Arusha,Musa,36.47945484,-3.42681892,1274.0,MusaArusha
Arusha,Mushorijogu,35.29873711,-3.33064209,1087.0,MushorijoguArusha
Arusha,Mushrijog,35.28731541,-3.33174505,1073.0,MushrijogArusha
Arusha,Mutishu,36.675976256666665,-3.3318829366666662,1535.0,MutishuArusha
Arusha,Muungano,36.73358076166667,-3.468227998333333,1176.5,MuunganoArusha
Arusha,Mwakeni,36.85201046,-3.1814560800000002,1460.5,MwakeniArusha
Arusha,Mwanama,36.71033722,-3.3840235749999996,1356.5,MwanamaArusha
Arusha,Mwandeti,36.83864467375,-3.5617946925,936.125,MwandetiArusha
Arusha,Mwaseny,36.83773621666666,-3.3096980866666663,1591.3333333333333,MwasenyArusha
Arusha,Mwembeni,35.5792248,-3.3398409633333332,1025.6666666666667,MwembeniArusha
Arusha,Mwenge,36.674465176666665,-3.282799453333333,1819.0,MwengeArusha
Arusha,Mwivaro Kati,36.75242786,-3.37995836,1318.0,Mwivaro KatiArusha
Arusha,Naamalasi,36.283249345,-3.029182515,941.0,NaamalasiArusha
Arusha,Nadoosoito,36.39206406666666,-3.4167020666666663,1337.6666666666667,NadoosoitoArusha
Arusha,Nagilongos,37.38635136,-2.8840359,1889.0,NagilongosArusha
Arusha,Naidikidiko,35.362616915000004,-1.9582473,2004.5,NaidikidikoArusha
Arusha,Naidikodiko,35.36893191,-1.95778896,1973.0,NaidikodikoArusha
Arusha,Naiti,36.16878882666666,-3.51573294,1193.3333333333333,NaitiArusha
Arusha,Nakilongos,37.3816689,-2.88319666,1861.0,NakilongosArusha
Arusha,Nakro,35.68726314,-2.94543181,2291.0,NakroArusha
Arusha,Nambamoja,36.935448635,-2.9682831050000003,1208.5,NambamojaArusha
Arusha,Nambele,36.71904192,-3.3576726933333334,1473.3333333333333,NambeleArusha
Arusha,Nanja,36.295137800000006,-3.4003078280000003,1424.4,NanjaArusha
Arusha,Napoko,36.88560716857143,-3.330534751428572,1309.7142857142858,NapokoArusha
Arusha,Napopo,36.89235672,-3.33620264,1290.0,NapopoArusha
Arusha,Nardoosoito,36.38962299,-3.41693948,1322.0,NardoosoitoArusha
Arusha,Naromolu,36.5254212375,-3.3594793899999997,1431.125,NaromoluArusha
Arusha,Narpi,36.47999478,-2.4877086866666667,1744.0,NarpiArusha
Arusha,Natema,36.675908836,-3.325859104,1584.4,NatemaArusha
Arusha,Naureni,36.713987083750006,-3.3563446812499995,1471.875,NaureniArusha
Arusha,Nazareti,36.919459525,-3.462390595,979.75,NazaretiArusha
Arusha,Ndaleta,36.260967449999995,-2.881950525,1928.5,NdaletaArusha
Arusha,Ndarakwa,36.24362223,-2.92393864,2045.0,NdarakwaArusha
Arusha,Ndepesi,36.7140610875,-2.62978853,1340.75,NdepesiArusha
Arusha,Ndeves,36.72247531,-2.63182889,1320.0,NdevesArusha
Arusha,Ndikana,36.68424731,-3.31499614,1130.0,NdikanaArusha
Arusha,Ndila,36.710710915,-2.6529279050000003,1377.0,NdilaArusha
Arusha,Ndingika,36.19572589,-2.61350568,1237.0,NdingikaArusha
Arusha,Ndinyika,36.18645668399999,-2.617858362,1300.2,NdinyikaArusha
Arusha,Ndoivo,36.687859464,-3.35590894,1440.2,NdoivoArusha
Arusha,Ndoombo Kati,36.77561660333333,-3.3316586533333337,1580.6666666666667,Ndoombo KatiArusha
Arusha,Ndoombo Mlimani,36.77488787,-3.325229475,1702.0,Ndoombo MlimaniArusha
Arusha,Ndorosi,36.65482462,-3.3456548450000003,1447.5,NdorosiArusha
Arusha,Ndrumanga,36.96638765,-3.367681305,1114.0,NdrumangaArusha
Arusha,Ndrumangeni,37.01275648764707,-3.3613903282352937,997.6470588235294,NdrumangeniArusha
Arusha,Ndukenyi,36.74799143,-3.3293716499999997,1659.0,NdukenyiArusha
Arusha,Ndulele,36.68510312777778,-3.3515142644444444,1459.2222222222222,NduleleArusha
Arusha,Nduruma Kati,36.79252582833333,-3.47373739,1036.5,Nduruma KatiArusha
Arusha,Nduruma Madukani,36.796231304,-3.488910506,985.6,Nduruma MadukaniArusha
Arusha,Nekilongos,37.3762664,-2.88065163,1856.0,NekilongosArusha
Arusha,Nengloriti,36.40906826,-3.23943896,1915.0,NengloritiArusha
Arusha,Ng'Ambo,35.566191505000006,-3.350885635,1480.5,Ng'AmboArusha
Arusha,Ng'Ong'Oi,36.111926045000004,-2.661225955,1885.0,Ng'Ong'OiArusha
Arusha,Nga'Ambo,35.564763875,-3.35414677,1451.0,Nga'AmboArusha
Arusha,Ngaluma,36.626773395,-3.2234147749999997,1846.1,NgalumaArusha
Arusha,Ngaramtoni,36.639507416363635,-3.3151939945454547,1514.1818181818182,NgaramtoniArusha
Arusha,Ngaranumbe,36.72099437,-3.36952019,1411.0,NgaranumbeArusha
Arusha,Ngarasero,36.852302505,-3.3750075099999997,1155.25,NgaraseroArusha
Arusha,Ngejisosia Kati,37.024949488,-3.30638769,1101.8,Ngejisosia KatiArusha
Arusha,Ngepesi,36.70647792,-2.63264139,1356.0,NgepesiArusha
Arusha,Ngido,36.66246288,-3.34397368,1468.0,NgidoArusha
Arusha,Ngidoti,36.658507490000005,-3.3468661133333337,1455.0,NgidotiArusha
Arusha,Ngidutu,36.6614373175,-3.3412319,1496.75,NgidutuArusha
Arusha,Ngobob,36.5671695,-3.37219298,1359.0,NgobobArusha
Arusha,Ngoikumeni,36.45070584,-3.47230967,1223.0,NgoikumeniArusha
Arusha,Ngoile,35.480578873333336,-3.0398024533333334,1349.0,NgoileArusha
Arusha,Ngoilenya,36.720943948000006,-3.3497904999999997,1541.8,NgoilenyaArusha
Arusha,Ngokumeni,36.46877563,-3.4502317,1242.0,NgokumeniArusha
Arusha,Ngorbob,36.572452104999996,-3.372798555,1366.0,NgorbobArusha
Arusha,Ngorika,36.717043079999996,-3.2634009825000003,1828.0,NgorikaArusha
Arusha,Ngosabaya,36.94010055,-3.346575,1320.0,NgosabayaArusha
Arusha,Ngosusu,35.327073350000006,-1.85756509,1881.0,NgosusuArusha
Arusha,Ngoswak,36.53435504444444,-2.5140016377777776,1660.111111111111,NgoswakArusha
Arusha,Ngovuvulana,36.54075791,-3.30225576,1639.0,NgovuvulanaArusha
Arusha,Nguikaa,36.73280889,-3.32830271,1697.0,NguikaaArusha
Arusha,Nguru Mausi,36.75152525,-3.390916925,1315.0,Nguru MausiArusha
Arusha,Nguru Meusi,36.75496846,-3.390347075,1308.5,Nguru MeusiArusha
Arusha,Nguruma Kati,36.772548492,-3.366576062,1342.8,Nguruma KatiArusha
Arusha,Ngurumani,35.511879,-2.96353408,1328.0,NgurumaniArusha
Arusha,Nguruvani,36.57856008,-3.402260965,1373.5,NguruvaniArusha
Arusha,Nguryashi,36.911520205,-3.313599285,1330.0,NguryashiArusha
Arusha,Nguuni,36.90279473,-3.39234789,1147.0,NguuniArusha
Arusha,Ngwarwa,35.66272783,-2.05646747,2197.0,NgwarwaArusha
Arusha,Ngwasei,36.746731446666665,-3.352781156666667,1539.0,NgwaseiArusha
Arusha,Ngweamu,36.653392772,-3.349422294,1434.0,NgweamuArusha
Arusha,Ngwramu,36.6514380875,-3.34408262,1441.5,NgwramuArusha
Arusha,Njaro,36.202593056666664,-3.471846473333333,1361.3333333333333,NjaroArusha
Arusha,Njoro,36.42345397333334,-3.3228521719999997,1460.5333333333333,NjoroArusha
Arusha,Njoroi,35.441544065,-1.856001295,1988.0,NjoroiArusha
Arusha,Nkoakirua,36.845136223333334,-3.3373348816666666,1304.25,NkoakiruaArusha
Arusha,Nkoanasari,36.82632887,-3.3175932999999995,1580.0,NkoanasariArusha
Arusha,Nkoaneema,37.00518279,-3.25923518,1214.0,NkoaneemaArusha
Arusha,Nkoanekoli,36.86650329818181,-3.3304495390909086,1313.8181818181818,NkoanekoliArusha
Arusha,Nkoangiroyi,36.85646721857143,-3.3334762971428566,1321.857142857143,NkoangiroyiArusha
Arusha,Nkoatila,36.83203253,-3.318833245,1525.0,NkoatilaArusha
Arusha,Nkoatilya,36.82956198,-3.3205073675,1513.0,NkoatilyaArusha
Arusha,Nkomalai,36.77511076142857,-3.3454512428571435,1480.5714285714287,NkomalaiArusha
Arusha,Nkuanasari,36.82699011,-3.3171382966666667,1576.6666666666667,NkuanasariArusha
Arusha,Nkuaroiya,36.79820215,-3.32278024,1674.0,NkuaroiyaArusha
Arusha,Nkuasakuya,36.81607052,-3.31554184,1638.0,NkuasakuyaArusha
Arusha,Nkuatila,36.82921536,-3.31860062,1536.0,NkuatilaArusha
Arusha,Nkuatilya,36.83063715,-3.313907445,1577.5,NkuatilyaArusha
Arusha,Nkura,36.8119061,-3.35455594,1281.0,NkuraArusha
Arusha,Nkure,36.83885843153847,-3.327884763076923,1403.2307692307693,NkureArusha
Arusha,Nkuuny,36.838734949999996,-3.1550975341176475,1472.1176470588234,NkuunyArusha
Arusha,Nkwamangasha,36.958327965,-3.3785916125,1054.75,NkwamangashaArusha
Arusha,Nkwasabaya,36.94111411,-3.354402155,1223.875,NkwasabayaArusha
Arusha,Nkwasakiri,36.83376088999999,-3.34306671,1308.5,NkwasakiriArusha
Arusha,Nkwerari,36.82246541,-3.321031275,1638.5,NkwerariArusha
Arusha,Nmc,35.683630480000005,-3.33573763,1510.5,NmcArusha
Arusha,Nnkoavele,36.75938962,-3.3257793500000004,1709.5,NnkoaveleArusha
Arusha,Noseiya,36.932897905,-3.22934809,1391.25,NoseiyaArusha
Arusha,Nosikito,36.225179444999995,-3.3537136849999998,1502.0,NosikitoArusha
Arusha,Nrangareni,35.33996054,-3.50827843,1031.0,NrangareniArusha
Arusha,Nshing'A,36.800072736666664,-3.3224974966666667,1677.0,Nshing'AArusha
Arusha,Ntuwe,36.926347289999995,-3.309546353333334,1235.4666666666667,NtuweArusha
Arusha,Nyamagana,36.7859873975,-3.5817233699999997,960.25,NyamaganaArusha
Arusha,Nyandila,36.71061863,-2.65318734,1396.0,NyandilaArusha
Arusha,Oiganomelo,35.66032592,-2.9545952,2576.0,OiganomeloArusha
Arusha,Oikanemelo,35.66049779,-2.9542796,2585.0,OikanemeloArusha
Arusha,Okononoi,36.98337755,-3.36113027,1065.0,OkononoiArusha
Arusha,Olama,36.65068782153847,-3.2544240407692304,1873.5384615384614,OlamaArusha
Arusha,Olchoronyokye,36.260773400000005,-2.9091161575,2141.25,OlchoronyokyeArusha
Arusha,Oldeves,36.907748993333335,-3.09886039,1295.6666666666667,OldevesArusha
Arusha,Oldonyo,36.51242381,-2.65498625,1511.0,OldonyoArusha
Arusha,Oldonyo Masi,36.75114382,-3.3821613,1337.0,Oldonyo MasiArusha
Arusha,Oldonyonado,35.96993512,-2.98680857,879.0,OldonyonadoArusha
Arusha,Oldonyowas,36.57562692470589,-3.0357511594117645,1908.764705882353,OldonyowasArusha
Arusha,Oldorko,36.6585964025,-2.687258655,1358.75,OldorkoArusha
Arusha,Oleiguruno,36.69435917454545,-3.3182004163636365,1652.0,OleigurunoArusha
Arusha,Olesiraa,36.48516283,-3.37957362,1365.0,OlesiraaArusha
Arusha,Olesiti Dukani,36.64560877,-3.39525988,1326.0,Olesiti DukaniArusha
Arusha,Olesiti Iati,36.63854942,-3.41029051,1330.0,Olesiti IatiArusha
Arusha,Olidendereiti,36.7810419,-3.50357608,999.0,OlidendereitiArusha
Arusha,Olimareti,36.702404134999995,-3.3434805450000002,1499.8333333333333,OlimaretiArusha
Arusha,Olinyidi,36.672322244285716,-3.296928861428572,1701.2857142857142,OlinyidiArusha
Arusha,Olkereyan Kati,36.72727083,-3.4287157999999995,1266.0,Olkereyan KatiArusha
Arusha,Olkilorit,36.47163087,-3.34215984,1418.0,OlkiloritArusha
Arusha,Olkononoi,36.97931335437499,-3.357199423125,1131.5625,OlkononoiArusha
Arusha,Olkung'Wado,36.87270850727273,-3.1646031036363635,1444.909090909091,Olkung'WadoArusha
Arusha,Olkungw'Ado,36.86740677,-3.171688671666667,1450.6666666666667,Olkungw'AdoArusha
Arusha,Olkurolit,36.64136948,-3.2117129233333337,1868.0,OlkurolitArusha
Arusha,Olmat,35.18983849,-3.29521555,1615.0,OlmatArusha
Arusha,Olmatejo,36.67158425,-3.37174683,1364.0,OlmatejoArusha
Arusha,Olmatejoo,36.67150135,-3.37164308,1379.0,OlmatejooArusha
Arusha,Olmot,35.19020292,-3.295006375,1606.5,OlmotArusha
Arusha,Olmotonyi,36.69574339333334,-3.57647779,1018.0,OlmotonyiArusha
Arusha,Olng'Wado,36.876005,-3.14956305,1425.0,Olng'WadoArusha
Arusha,Olnoswa,36.57002466666666,-3.3693779,1360.6666666666667,OlnoswaArusha
Arusha,Olodendereit,36.73468919,-3.479429235,1139.3333333333333,OlodendereitArusha
Arusha,Olodonyo,36.70461729,-3.31680671,1835.0,OlodonyoArusha
Arusha,Ologelo,36.714060912,-3.336428446,1598.0,OlogeloArusha
Arusha,Oloipiri,35.435378165,-2.04250038,1983.0,OloipiriArusha
Arusha,Ololikoti,36.59325446333333,-3.2633778533333335,1662.0,OlolikotiArusha
Arusha,Ololosokwan,35.33912643,-1.8768949,1915.0,OlolosokwanArusha
Arusha,Ololua,36.61236832625,-3.2316696275,1757.875,OloluaArusha
Arusha,Olomatejo,36.702408973749996,-3.34079331625,1512.25,OlomatejoArusha
Arusha,Olomitu,36.760200749374995,-3.41616567375,1257.75,OlomituArusha
Arusha,Oloodorkaria,36.3264988,-3.35026155,1494.0,OloodorkariaArusha
Arusha,Olorien,36.65222716666666,-3.3388269166666666,1486.8333333333333,OlorienArusha
Arusha,Olorieni,36.71949840333333,-3.433932346666667,1251.6666666666667,OlorieniArusha
Arusha,Olorieni Kat,36.72514377,-3.43163104,1266.0,Olorieni KatArusha
Arusha,Olorieni Kati,36.72392474,-3.4325058950000003,1252.0,Olorieni KatiArusha
Arusha,Olorisyo,36.30925362,-3.76176128,1366.5,OlorisyoArusha
Arusha,Olovolosi,36.68044954,-3.38388334,1357.0,OlovolosiArusha
Arusha,Olovolusi,36.7331115125,-3.3350347900000004,1651.0,OlovolusiArusha
Arusha,Olpiro Kati,35.281381064,-3.336155816,1060.8,Olpiro KatiArusha
Arusha,Oltinga,36.72858912,-2.74236572,1301.0,OltingaArusha
Arusha,Oltroto,36.691089010909096,-3.3351624927272727,1534.5454545454545,OltrotoArusha
Arusha,Oltukay,35.919918716666665,-3.63207485,967.3333333333334,OltukayArusha
Arusha,Olubak,36.58961495,-3.21790149,1848.0,OlubakArusha
Arusha,Olubomba,36.62472888,-3.2131216187500002,1821.0,OlubombaArusha
Arusha,Olubombani,36.540866765000004,-3.23703435,1903.0,OlubombaniArusha
Arusha,Olumeli,36.693328691249995,-3.30046938875,1751.75,OlumeliArusha
Arusha,Olumeri,36.69376396,-3.29808751,1739.0,OlumeriArusha
Arusha,Olumesela,36.816387395,-3.4443163649999997,1082.0,OlumeselaArusha
Arusha,Olumkuna,36.57052028,-3.25264013,1854.0,OlumkunaArusha
Arusha,Oonjorai,35.50534575,-3.0384581,1584.0,OonjoraiArusha
Arusha,Oonjurai,35.50524889,-3.03875972,1577.0,OonjuraiArusha
Arusha,Orbomba,36.688167025,-2.721091265,1373.5,OrbombaArusha
Arusha,Orbukoi,36.057925736,-3.669438402,1095.4,OrbukoiArusha
Arusha,Orkaria,36.46537173,-3.30301559,1538.0,OrkariaArusha
Arusha,Orkesumet,36.592265186666665,-2.4497556333333335,1664.6666666666667,OrkesumetArusha
Arusha,Orkolili,36.602223425,-3.5578302849999996,1209.0,OrkoliliArusha
Arusha,Orkolkolu,36.05750062,-3.2060381825000004,981.25,OrkolkoluArusha
Arusha,Ormang'Wai,36.096385027500006,-3.612156415,1122.0,Ormang'WaiArusha
Arusha,Ormanie,36.361713155000004,-2.7994546175000004,1092.0,OrmanieArusha
Arusha,Oroirwa,36.697412895,-3.334616684,1544.5,OroirwaArusha
Arusha,Orpura,36.005012317500004,-2.6275589125,648.75,OrpuraArusha
Arusha,Orpuruwa,36.556582713333334,-3.46011407,1289.6666666666667,OrpuruwaArusha
Arusha,Orpuwa,36.55523461,-3.45717381,1283.0,OrpuwaArusha
Arusha,Orro,36.945212595,-2.95611536,1197.5,OrroArusha
Arusha,Orwatela,36.79530362,-3.32109691,1683.0,OrwatelaArusha
Arusha,Osinoni,35.09572203,-3.36153992,1613.0,OsinoniArusha
Arusha,Osinyai,36.698684754,-3.0364430019999995,1389.2,OsinyaiArusha
Arusha,Osterbay,36.671368709999996,-3.3732049600000003,1362.5,OsterbayArusha
Arusha,Osunyai,36.66801829999999,-3.38729848,1329.0,OsunyaiArusha
Arusha,Patandi,36.78249218166667,-3.368484916666667,1311.6666666666667,PatandiArusha
Arusha,Patendi,36.78351196,-3.37163226,1309.0,PatendiArusha
Arusha,Patruman,36.71713758692309,-3.1254327407692304,1629.1538461538462,PatrumanArusha
Arusha,Pinyinyi,35.93332413333334,-2.3218218533333332,635.0,PinyinyiArusha
Arusha,Poli Kati,36.79859336,-3.34265745,1445.0,Poli KatiArusha
Arusha,Puslukunya,36.48224780333333,-3.135938933333333,1209.0,PuslukunyaArusha
Arusha,Qanqali,35.878097936,-3.2633530540000004,1597.0,QanqaliArusha
Arusha,Qaru,35.630801768333335,-3.5126236599999996,1455.8333333333333,QaruArusha
Arusha,Rambo Kaskazini,35.70593919,-3.37603316,1455.0,Rambo KaskaziniArusha
Arusha,Randiren,36.0520363,-3.68506859,1101.0,RandirenArusha
Arusha,Rc,36.64016815277777,-3.2588884722222224,1630.8333333333333,RcArusha
Arusha,Relini,37.02633668,-3.37590291,931.0,ReliniArusha
Arusha,Rhotia,35.718752775,-3.326056355,1550.5,RhotiaArusha
Arusha,Rikokola,37.234753808,-2.836533404,1575.6,RikokolaArusha
Arusha,Rosrway,36.7426624125,-3.4178475749999997,1289.5,RosrwayArusha
Arusha,Rumale,36.799999650000004,-3.34026823,1503.5,RumaleArusha
Arusha,Sabasaba,35.861745345,-3.28031874,1513.0,SabasabaArusha
Arusha,Sabato,35.65489047,-3.3299107725,1545.25,SabatoArusha
Arusha,Sabore,36.645435961249994,-3.3395004262500003,1452.875,SaboreArusha
Arusha,Saborien,36.65006074666667,-3.3405928166666663,1476.6666666666667,SaborienArusha
Arusha,Sabrata,35.57561153,-3.41438866,1370.0,SabrataArusha
Arusha,Sabreta,35.57598197,-3.40956986,1397.0,SabretaArusha
Arusha,Sakei,36.67620003857142,-3.356712977857143,1421.7857142857142,SakeiArusha
Arusha,Salama,35.60889302333334,-3.5545027866666667,1501.6666666666667,SalamaArusha
Arusha,Sale,35.70887890333333,-2.2884223433333335,1241.6666666666667,SaleArusha
Arusha,Salunga,36.6174375375,-3.2113886125,1801.5,SalungaArusha
Arusha,Sama,36.70080123500001,-3.3543740283333334,1446.0,SamaArusha
Arusha,Samanga,36.66195455,-3.3725740966666664,1369.0,SamangaArusha
Arusha,Samaria,36.806679792999994,-3.5010712889999995,979.5,SamariaArusha
Arusha,Sambagani,36.66352066,-3.3727168,1371.0,SambaganiArusha
Arusha,Samunge,35.699414966666666,-2.156078796666667,1356.6666666666667,SamungeArusha
Arusha,Sanawari,36.697392315,-3.3588407275,1420.5,SanawariArusha
Arusha,Sanawarii,36.69589628,-3.35837977,1433.0,SanawariiArusha
Arusha,Sandawe,36.802412076,-3.4969967140000002,985.2,SandaweArusha
Arusha,Sanganani,36.747170776000004,-3.3659054,1405.0,SangananiArusha
Arusha,Sangananu,36.74407789,-3.36081717,1490.0,SangananuArusha
Arusha,Sangarini,37.399605969999996,-2.890996245,1906.5,SangariniArusha
Arusha,Saravo,36.58684944,-3.41152693,1381.0,SaravoArusha
Arusha,Sasagwenju,35.333802745,-3.517087525,1041.5,SasagwenjuArusha
Arusha,Sasanwe,35.71048756,-2.15006575,1347.0,SasanweArusha
Arusha,Scarida,36.717119303333334,-2.53406683,1402.3333333333333,ScaridaArusha
Arusha,School,36.64170263,-3.41299186,1321.0,SchoolArusha
Arusha,Seela Kati,36.78656557,-3.331516538571429,1555.5714285714287,Seela KatiArusha
Arusha,Sekei,36.743409837499996,-3.3942795675,1348.5,SekeiArusha
Arusha,Senato,36.90238049,-3.2575938,1546.0,SenatoArusha
Arusha,Sendui,35.752129385,-2.9107100900000002,2773.5,SenduiArusha
Arusha,Seneto,36.905859996249994,-3.25890705875,1552.125,SenetoArusha
Arusha,Sepeko,36.34794936,-3.40965225,1319.0,SepekoArusha
Arusha,Serera,35.91688659666667,-3.1638899333333335,1729.3333333333333,SereraArusha
Arusha,Sero,35.332254375000005,-1.823044265,1865.5,SeroArusha
Arusha,Seuli,36.62957504933333,-3.285250121333333,1596.5333333333333,SeuliArusha
Arusha,Shambarai Kati,36.898790622499995,-3.5623089350000003,930.0,Shambarai KatiArusha
Arusha,Shangiti,35.723075572,-3.458931774,1312.4,ShangitiArusha
Arusha,Shara,36.81747763,-3.32148764,1567.0,SharaArusha
Arusha,Shaudo,36.64008480299999,-3.2325001475,1862.95,ShaudoArusha
Arusha,Shimamo,36.04564979,-3.63547326,1053.0,ShimamoArusha
Arusha,Shimbumbu,36.78661105399999,-3.3551323159999997,1447.5,ShimbumbuArusha
Arusha,Shishitony,36.95009824,-3.2292320549999998,1356.5,ShishitonyArusha
Arusha,Shule,36.67760518,-3.321307525,1594.5,ShuleArusha
Arusha,Shuleni,36.57259845624999,-3.3137360542857146,1295.857142857143,ShuleniArusha
Arusha,Shuma,36.65564283,-3.36519034,1379.0,ShumaArusha
Arusha,Siayi Chini,35.797214733333334,-3.278901766666667,1540.3333333333333,Siayi ChiniArusha
Arusha,Siayi Juu,35.790021493999994,-3.2562779139999996,1611.0,Siayi JuuArusha
Arusha,Simangeda,35.35405406,-3.49616666,1026.0,SimangedaArusha
Arusha,Simanjiro,36.69972282333334,-3.366353176666667,1437.0,SimanjiroArusha
Arusha,Sinai,36.9111136,-3.19357031,1490.3333333333333,SinaiArusha
Arusha,Sindikala,36.683666935000005,-3.3196444400000003,1598.0,SindikalaArusha
Arusha,Siyoni,36.85387355428572,-3.3945472185714287,1108.5714285714287,SiyoniArusha
Arusha,Skuta,36.921894861666665,-3.2283439000000005,1430.0,SkutaArusha
Arusha,Soine,36.66101084,-3.350766094285714,1449.142857142857,SoineArusha
Arusha,Soitsambu,35.41928713,-1.90369181,2013.0,SoitsambuArusha
Arusha,Sokoni,36.8801121131579,-3.366791659473684,1182.3157894736842,SokoniArusha
Arusha,Songambele,36.95525293,-3.3282800999999993,1208.6666666666667,SongambeleArusha
Arusha,Sorenyi,36.73193672,-3.37781768,1362.0,SorenyiArusha
Arusha,Sovoyo,36.584531803333334,-3.3804868666666663,1383.3333333333333,SovoyoArusha
Arusha,Soyekiutu,36.720592875,-3.339978608333333,1577.6666666666667,SoyekiutuArusha
Arusha,Stesheni,36.64644547368422,-3.2480689557894737,1878.2631578947369,StesheniArusha
Arusha,Stoni,36.795397046,-3.367002792,1284.2,StoniArusha
Arusha,Subreta,35.587091224999995,-3.40626012,1405.0,SubretaArusha
Arusha,Sukenya,35.511666643333335,-1.9557632633333333,2044.0,SukenyaArusha
Arusha,Sukumeni,36.56672671,-3.2544609600000003,1810.0,SukumeniArusha
Arusha,Sumbati,35.36025662,-3.20252776,2304.0,SumbatiArusha
Arusha,Sumlei,36.64101575642858,-3.320640030714286,1521.7142857142858,SumleiArusha
Arusha,Sura,36.704725823749996,-3.15824411375,1879.125,SuraArusha
Arusha,Surumala,36.938646342,-3.3685999730000007,1134.1,SurumalaArusha
Arusha,Surumali,36.934390113333336,-3.3673519866666664,1127.0,SurumaliArusha
Arusha,Tanaka,36.683905072857144,-3.356329091428571,1433.5714285714287,TanakaArusha
Arusha,Tanesco,36.90004995555555,-3.397222145555555,1120.8333333333333,TanescoArusha
Arusha,Tanganyika Pekas,36.74437012,-3.40325184,1316.0,Tanganyika PekasArusha
Arusha,Tanganyika Pekasi,36.743367039999995,-3.403864655,1321.0,Tanganyika PekasiArusha
Arusha,Tangini,36.898236026999996,-3.3436096750000006,1269.9,TanginiArusha
Arusha,Tanki,36.897919529999996,-3.11386195,1305.0,TankiArusha
Arusha,Tarakwa,36.66257796875001,-3.33335760625,1560.25,TarakwaArusha
Arusha,Tasata,35.78668609333334,-3.281748503333333,1516.6666666666667,TasataArusha
Arusha,Tdd,35.841937352,-3.292333404,1477.6,TddArusha
Arusha,Tdh,35.83735311,-3.2453781000000004,1731.0,TdhArusha
Arusha,Teena,36.84123205,-3.347448583333333,1247.0,TeenaArusha
Arusha,Tengeru,36.78349939666667,-3.3715925216666665,1307.8333333333333,TengeruArusha
Arusha,Tenki,36.898799185,-3.114361581666667,1304.1666666666667,TenkiArusha
Arusha,Tfa,35.675299396666674,-3.3346336366666662,1518.3333333333333,TfaArusha
Arusha,Themi Mashariki,36.70002704,-3.392519,1325.0,Themi MasharikiArusha
Arusha,Thoma,35.5815495,-3.39437672,1423.0,ThomaArusha
Arusha,Titiwi,35.68653895,-3.41521246,1468.0,TitiwiArusha
Arusha,Tlaa,35.624096655,-3.490405345,1388.5,TlaaArusha
Arusha,Tlawi Juu,35.802851215,-3.2554006849999997,1661.6666666666667,Tlawi JuuArusha
Arusha,Tlawi Kati,35.806166652,-3.277780328,1548.4,Tlawi KatiArusha
Arusha,Tloma,35.864177604,-3.24660324,1698.8,TlomaArusha
Arusha,Tsini,35.82707985,-3.26722749,1607.0,TsiniArusha
Arusha,Uavii,36.65976100666666,-3.307945566666666,1608.0,UaviiArusha
Arusha,Ufana,35.62772085,-3.3493566675,1529.5,UfanaArusha
Arusha,Ujamaa,36.69194503,-3.5882941380000006,1014.2,UjamaaArusha
Arusha,Ulangini,36.794172270000004,-3.56442809,978.0,UlanginiArusha
Arusha,Ulkononoi,36.97102648,-3.35919574,1226.0,UlkononoiArusha
Arusha,Ulkusare,36.96092818428572,-3.3464244967857146,1329.75,UlkusareArusha
Arusha,Ulwahi,37.12196793,-2.84493576,1563.0,UlwahiArusha
Arusha,Umbe,35.635343166666665,-3.35878483,1499.6666666666667,UmbeArusha
Arusha,Unguuni,36.799995405555556,-3.497308018888889,991.1111111111111,UnguuniArusha
Arusha,Upendo,36.802673670000004,-3.4531495671428574,1065.4285714285713,UpendoArusha
Arusha,Urisho,36.967127833333336,-3.2774960666666666,1210.6666666666667,UrishoArusha
Arusha,Urundini,36.657738745,-3.36810778,1372.5,UrundiniArusha
Arusha,Ushili,36.794068440000004,-3.3280144050000002,1600.0,UshiliArusha
Arusha,Uzunguni,36.830842136428565,-3.2168860849999996,1524.857142857143,UzunguniArusha
Arusha,Viwandani,36.683478735,-3.38194176,1355.5,ViwandaniArusha
Arusha,Voole,36.63459675,-3.33219138,1474.0,VooleArusha
Arusha,W/S,35.83670051599999,-3.2542532800000004,1680.6,W/SArusha
Arusha,Wasso,35.557372516363635,-2.05708076,2056.818181818182,WassoArusha
Arusha,Wataalam,36.65738652,-3.3144801299999997,1541.5,WataalamArusha
Arusha,Wtskim,35.83491709,-3.25801203,1680.0,WtskimArusha
Arusha,Yoanes,36.637927893333334,-3.3123171399999998,1508.3333333333333,YoanesArusha
Arusha,Yudek,35.50024972333334,-3.38818515,1549.6666666666667,YudekArusha
Arusha,Zaburi,36.06162216090909,-3.530652195454546,1037.5454545454545,ZaburiArusha
Arusha,Zahanati,36.77136938,-3.16261669,2158.0,ZahanatiArusha
Arusha,Zaire,36.868070244062494,-3.481039205625,965.375,ZaireArusha
Dar es Salaam,Amani Gomvu,39.48142456,-6.9353778,-2.0,Amani GomvuDar es Salaam
Dar es Salaam,Azimio,39.1351784,-6.70969097,107.0,AzimioDar es Salaam
Dar es Salaam,Basihaya,39.16253395,-6.63899236,-19.0,BasihayaDar es Salaam
Dar es Salaam,Bohari,39.52970608,-7.03055802,-8.0,BohariDar es Salaam
Dar es Salaam,Bondeni,39.53459924,-7.08818301,-19.0,BondeniDar es Salaam
Dar es Salaam,Buyuni,39.5215713,-7.12888268,-52.0,BuyuniDar es Salaam
Dar es Salaam,Buyuni Centre,39.52081696,-7.1199834000000015,-35.0,Buyuni CentreDar es Salaam
Dar es Salaam,Ccm,39.48030567,-6.93497361,-4.0,CcmDar es Salaam
Dar es Salaam,Chuo Cha Ualimu,39.41263752,-6.86352262,-43.0,Chuo Cha UalimuDar es Salaam
Dar es Salaam,Dege,39.441578207499994,-6.897918552499999,-23.5,DegeDar es Salaam
Dar es Salaam,Goba,39.16123369352941,-6.740623085882353,87.82352941176471,GobaDar es Salaam
Dar es Salaam,Golani,39.517960325000004,-7.000109805,3.0,GolaniDar es Salaam
Dar es Salaam,Gulubwida,39.50606948,-7.15299639,-25.0,GulubwidaDar es Salaam
Dar es Salaam,Hondogo,39.04174245,-6.77381547,79.0,HondogoDar es Salaam
Dar es Salaam,Jakaya,39.096602445,-6.64279122,46.0,JakayaDar es Salaam
Dar es Salaam,Jangwani,39.35631387,-6.85837428,-26.0,JangwaniDar es Salaam
Dar es Salaam,Jogaya,39.4736433,-6.92183473,-27.0,JogayaDar es Salaam
Dar es Salaam,Kanisani,39.41360222,-6.96656294,21.0,KanisaniDar es Salaam
Dar es Salaam,Kanisani Rc,39.48119249,-6.8990694,-37.0,Kanisani RcDar es Salaam
Dar es Salaam,Kasikazini,39.44213496,-6.8905616,-20.0,KasikaziniDar es Salaam
Dar es Salaam,Kchemchem,39.33096519,-6.88081557,-20.0,KchemchemDar es Salaam
Dar es Salaam,Kibugumo Msikitini,39.37325944,-6.8656573000000005,-36.0,Kibugumo MsikitiniDar es Salaam
Dar es Salaam,Kibungo,39.52931401,-7.08622015,-15.0,KibungoDar es Salaam
Dar es Salaam,Kibwegere,39.04388667333333,-6.752107586666667,70.33333333333333,KibwegereDar es Salaam
Dar es Salaam,Kichangachui,39.37370696,-6.87047415,-29.0,KichangachuiDar es Salaam
Dar es Salaam,Kichangani,39.354011951249994,-6.914633864999999,43.375,KichanganiDar es Salaam
Dar es Salaam,Kichemchem 2,39.33169508,-6.88363802,-7.0,Kichemchem 2Dar es Salaam
Dar es Salaam,Kidadaa,39.53433925,-7.00800854,-12.0,KidadaaDar es Salaam
Dar es Salaam,Kidagaa,39.53515912333334,-7.0123373566666665,-25.333333333333332,KidagaaDar es Salaam
Dar es Salaam,Kigogo,39.36514981285715,-6.90341384,-7.142857142857143,KigogoDar es Salaam
Dar es Salaam,Kikwete Vision,39.103777306666665,-6.647226149999999,49.333333333333336,Kikwete VisionDar es Salaam
Dar es Salaam,Kilimahewa,39.174090570000004,-6.7020015575,66.375,KilimahewaDar es Salaam
Dar es Salaam,Kilindijumbe,39.51023164,-6.97641707,-4.0,KilindijumbeDar es Salaam
Dar es Salaam,Kinzudi,39.185238313333336,-6.728566596666666,67.41666666666667,KinzudiDar es Salaam
Dar es Salaam,Kiponza,39.21797915,-6.97589143,29.0,KiponzaDar es Salaam
Dar es Salaam,Kisanga 'A',39.1704005,-6.672411589999999,13.25,Kisanga 'A'Dar es Salaam
Dar es Salaam,Kisanga A',39.17385502,-6.67251757,9.0,Kisanga A'Dar es Salaam
Dar es Salaam,Kisauke,39.13350474,-6.700789715,89.5,KisaukeDar es Salaam
Dar es Salaam,Kisiwani,39.321602765,-6.848937355,-13.5,KisiwaniDar es Salaam
Dar es Salaam,Kitomondo,39.532623799999996,-7.059214065,-16.5,KitomondoDar es Salaam
Dar es Salaam,Kizani,39.397703490384615,-6.870458279230767,-20.384615384615383,KizaniDar es Salaam
Dar es Salaam,Kizito Huonjwa,39.52786169,-6.98635796,-15.0,Kizito HuonjwaDar es Salaam
Dar es Salaam,Kiziza,39.34122378,-6.87828374,-8.0,KizizaDar es Salaam
Dar es Salaam,Kotomondo,39.53352229,-7.05961761,1.0,KotomondoDar es Salaam
Dar es Salaam,Kwa,39.36381206,-6.86424983,-35.0,KwaDar es Salaam
Dar es Salaam,Kwa Abbas Mwinyichum,39.36122258,-6.86120992,-47.0,Kwa Abbas MwinyichumDar es Salaam
Dar es Salaam,Kwa Galaboi,39.53571763,-7.00866174,-24.0,Kwa GalaboiDar es Salaam
Dar es Salaam,Kwa Hamza,39.33593292,-6.89800141,12.0,Kwa HamzaDar es Salaam
Dar es Salaam,Kwa Juma,39.36702187,-6.8654517,-42.0,Kwa JumaDar es Salaam
Dar es Salaam,Kwa Kweka,39.37183298,-6.86542655,-22.0,Kwa KwekaDar es Salaam
Dar es Salaam,Kwa Kweka 2,39.37121958,-6.86615448,-63.0,Kwa Kweka 2Dar es Salaam
Dar es Salaam,Kwa Madadi,39.364544625,-6.8637300450000005,-32.0,Kwa MadadiDar es Salaam
Dar es Salaam,Kwa Mgeni,39.36124233,-6.86164095,-37.0,Kwa MgeniDar es Salaam
Dar es Salaam,Kwa Missfumo,39.34250345,-6.89372106,1.0,Kwa MissfumoDar es Salaam
Dar es Salaam,Kwa Moris,39.53131281,-7.0427844,-1.0,Kwa MorisDar es Salaam
Dar es Salaam,Kwa Sadara,39.33713777,-6.90359487,30.0,Kwa SadaraDar es Salaam
Dar es Salaam,Kwa Siasa,39.36865443,-6.86491072,-48.0,Kwa SiasaDar es Salaam
Dar es Salaam,Kwa Yusuph,39.36430333,-6.86627474,-43.0,Kwa YusuphDar es Salaam
Dar es Salaam,Kwachale,39.53081799,-7.0261666,5.0,KwachaleDar es Salaam
Dar es Salaam,Kwakibasila,39.42303514,-6.98922531,30.0,KwakibasilaDar es Salaam
Dar es Salaam,Kwembe,39.08424674083333,-6.816764995833332,143.0,KwembeDar es Salaam
Dar es Salaam,Lingato,39.37407836,-6.94817873,2.0,LingatoDar es Salaam
Dar es Salaam,Mabwepande,39.073057165,-6.6578181275,41.0,MabwepandeDar es Salaam
Dar es Salaam,Madala Kati,39.13522979,-6.68690322,68.75,Madala KatiDar es Salaam
Dar es Salaam,Madale Kati,39.13603616,-6.6852803,66.0,Madale KatiDar es Salaam
Dar es Salaam,Madrasa,39.52711433,-6.98874758,-15.0,MadrasaDar es Salaam
Dar es Salaam,Madukamawili,39.41974346,-6.88563914,-36.0,MadukamawiliDar es Salaam
Dar es Salaam,Magengeni,39.485158558,-7.0296569700000004,-5.2,MagengeniDar es Salaam
Dar es Salaam,Makondeni,39.426289456666666,-7.0024812333333335,50.333333333333336,MakondeniDar es Salaam
Dar es Salaam,Mangara,39.33781879,-6.89841917,10.0,MangaraDar es Salaam
Dar es Salaam,Maputo,39.130904515,-6.57609359,-21.0,MaputoDar es Salaam
Dar es Salaam,Matosa,39.139119377142855,-6.7410592014285715,100.57142857142857,MatosaDar es Salaam
Dar es Salaam,Maweni,39.347107247500006,-6.838975761249999,-25.375,MaweniDar es Salaam
Dar es Salaam,Mbondole,39.153363195,-6.97899952,57.5,MbondoleDar es Salaam
Dar es Salaam,Mbuyuni,39.35365194,-6.85749605,-21.0,MbuyuniDar es Salaam
Dar es Salaam,Mbwamaji,39.41420311333333,-6.865475826666667,-42.833333333333336,MbwamajiDar es Salaam
Dar es Salaam,Miembe Dekwa,39.52402148,-6.98480223,-20.0,Miembe DekwaDar es Salaam
Dar es Salaam,Minondo,39.477688645,-6.9330486525,9.25,MinondoDar es Salaam
Dar es Salaam,Mitimifu,39.35134171,-6.85530332,-20.0,MitimifuDar es Salaam
Dar es Salaam,Mitimirefu,39.34915765,-6.85611559,-16.0,MitimirefuDar es Salaam
Dar es Salaam,Mivumoni,39.15608471,-6.67342013,56.0,MivumoniDar es Salaam
Dar es Salaam,Mji Mwema,39.34271659,-6.85164021,-27.0,Mji MwemaDar es Salaam
Dar es Salaam,Mjimwema 1,39.352696,-6.84960283,-19.0,Mjimwema 1Dar es Salaam
Dar es Salaam,Mkamba,39.41449421,-7.027060090000001,2.0,MkambaDar es Salaam
Dar es Salaam,Mkwajuni,39.3229641525,-6.85653530375,-15.375,MkwajuniDar es Salaam
Dar es Salaam,Mpigi Magoe,39.05669488,-6.72169757,39.0,Mpigi MagoeDar es Salaam
Dar es Salaam,Mpiji,39.11285507833333,-6.589960221666666,-12.666666666666666,MpijiDar es Salaam
Dar es Salaam,Msikitini,39.402707213999996,-6.916562294,-13.8,MsikitiniDar es Salaam
Dar es Salaam,Msumi,39.1034892925,-6.70672207,87.5,MsumiDar es Salaam
Dar es Salaam,Mtaa Wa Bombani,39.12164963642857,-6.899624097142856,80.57142857142857,Mtaa Wa BombaniDar es Salaam
Dar es Salaam,Mtaa Wa Bonyokwa,39.16137216,-6.831293705999999,71.6,Mtaa Wa BonyokwaDar es Salaam
Dar es Salaam,Mtaa Wa Kichangani,39.127493495357136,-6.904683712142858,62.285714285714285,Mtaa Wa KichanganiDar es Salaam
Dar es Salaam,Mtaa Wa Kifuru,39.12114196,-6.834066744999999,86.5,Mtaa Wa KifuruDar es Salaam
Dar es Salaam,Mtaa Wa Kigezi,39.09981660454545,-6.964505121818183,61.36363636363637,Mtaa Wa KigeziDar es Salaam
Dar es Salaam,Mtaa Wa Kigogo Fresh,39.1208278035,-6.9118594925,60.2,Mtaa Wa Kigogo FreshDar es Salaam
Dar es Salaam,Mtaa Wa Kimwani,39.07580404333333,-7.000323170000001,76.58333333333333,Mtaa Wa KimwaniDar es Salaam
Dar es Salaam,Mtaa Wa Kinyamwezi,39.115865073636364,-6.9241333472727264,57.27272727272727,Mtaa Wa KinyamweziDar es Salaam
Dar es Salaam,Mtaa Wa Kinyerezi,39.160799430000004,-6.846357551333333,55.266666666666666,Mtaa Wa KinyereziDar es Salaam
Dar es Salaam,Mtaa Wa Kipunguni B,39.17286649649999,-6.901177819999998,28.325,Mtaa Wa Kipunguni BDar es Salaam
Dar es Salaam,Mtaa Wa Kitonga,39.154286406,-7.00398491,43.0,Mtaa Wa KitongaDar es Salaam
Dar es Salaam,Mtaa Wa Kitunda Kati,39.19912667203704,-6.898893927685185,13.25,Mtaa Wa Kitunda KatiDar es Salaam
Dar es Salaam,Mtaa Wa Kivule,39.1770080015,-6.925953229374999,14.025,Mtaa Wa KivuleDar es Salaam
Dar es Salaam,Mtaa Wa Lubakaya,39.08295412307692,-7.011535846923078,71.0,Mtaa Wa LubakayaDar es Salaam
Dar es Salaam,Mtaa Wa Lukooni,39.086373618,-7.003003726000001,73.73333333333333,Mtaa Wa LukooniDar es Salaam
Dar es Salaam,Mtaa Wa Mbondole,39.153701954285715,-6.97782045142857,36.857142857142854,Mtaa Wa MbondoleDar es Salaam
Dar es Salaam,Mtaa Wa Mgeule,39.103001414,-6.947098949000001,70.2,Mtaa Wa MgeuleDar es Salaam
Dar es Salaam,Mtaa Wa Mji Mpya,39.16079389076923,-6.900470652307693,25.384615384615383,Mtaa Wa Mji MpyaDar es Salaam
Dar es Salaam,Mtaa Wa Mvuleni,39.15878885,-7.001400530000001,43.666666666666664,Mtaa Wa MvuleniDar es Salaam
Dar es Salaam,Mtaa Wa Mzinga,39.206053503235296,-6.913526651470588,13.794117647058824,Mtaa Wa MzingaDar es Salaam
Dar es Salaam,Mtaa Wa Nyeburu,39.09294918818181,-6.9626453131818185,66.68181818181819,Mtaa Wa NyeburuDar es Salaam
Dar es Salaam,Mtaa Wa Nzasa,39.04979058,-7.02829096,82.0,Mtaa Wa NzasaDar es Salaam
Dar es Salaam,Mtaa Wa Pugu Bangulo,39.132738766,-6.867495201999999,69.8,Mtaa Wa Pugu BanguloDar es Salaam
Dar es Salaam,Mtaa Wa Pugu Station,39.12313558933333,-6.883117954666667,55.06666666666667,Mtaa Wa Pugu StationDar es Salaam
Dar es Salaam,Mtaa Wa Tungini,39.088787202000006,-6.981909718999999,78.5,Mtaa Wa TunginiDar es Salaam
Dar es Salaam,Mtaa Wa Vikongolo,39.08751527,-6.987601963333333,79.33333333333333,Mtaa Wa VikongoloDar es Salaam
Dar es Salaam,Mtaa Wa Vikongoro,39.09636628333334,-6.98233053685185,69.07407407407408,Mtaa Wa VikongoroDar es Salaam
Dar es Salaam,Mtaa Wa Yangeyange,39.17765865545454,-6.972330597727271,27.045454545454547,Mtaa Wa YangeyangeDar es Salaam
Dar es Salaam,Mtaa Wa Yongwe,39.11279440888889,-6.994104496666666,48.166666666666664,Mtaa Wa YongweDar es Salaam
Dar es Salaam,Mtaa Wa Zavala,39.104823268888886,-6.951904151111111,61.22222222222222,Mtaa Wa ZavalaDar es Salaam
Dar es Salaam,Mtaa Wa Zingiziwa,39.084592565,-7.043359946666666,54.916666666666664,Mtaa Wa ZingiziwaDar es Salaam
Dar es Salaam,Mtaa Yangeyange,39.177991077499996,-6.973614435,29.0,Mtaa YangeyangeDar es Salaam
Dar es Salaam,Mtiumtupi Mtu,39.36264046,-6.8627781,-40.0,Mtiumtupi MtuDar es Salaam
Dar es Salaam,Muhogo Mbwana,39.42583886,-6.99381496,30.0,Muhogo MbwanaDar es Salaam
Dar es Salaam,Mumba,39.53168724,-7.04983676,-4.5,MumbaDar es Salaam
Dar es Salaam,Munduli,39.32787134,-6.86376375,-28.0,MunduliDar es Salaam
Dar es Salaam,Mwaninga,39.4148579075,-6.9708721975,8.75,MwaningaDar es Salaam
Dar es Salaam,Mwasonga Magengeni,39.42470820000001,-6.99815437,40.0,Mwasonga MagengeniDar es Salaam
Dar es Salaam,Mwembe,39.3629743,-6.86267162,-33.0,MwembeDar es Salaam
Dar es Salaam,Mwembe Bami,39.21980557,-6.96874756,17.0,Mwembe BamiDar es Salaam
Dar es Salaam,Mwera,39.4079306475,-6.878697955,-21.75,MweraDar es Salaam
Dar es Salaam,Mzambarauni,39.37135389,-6.86444201,-21.0,MzambarauniDar es Salaam
Dar es Salaam,Mzaya,39.33578541,-6.90294761,9.0,MzayaDar es Salaam
Dar es Salaam,Nape,39.091730896,-6.639033824,48.6,NapeDar es Salaam
Dar es Salaam,New Ciity,39.09553702,-6.64226052,51.0,New CiityDar es Salaam
Dar es Salaam,New City,39.09486752333333,-6.642447091111112,51.0,New CityDar es Salaam
Dar es Salaam,Ngobanya,39.51363562,-6.96825032,-6.0,NgobanyaDar es Salaam
Dar es Salaam,Nyakwale,39.3425539875,-6.894227805000001,-4.0,NyakwaleDar es Salaam
Dar es Salaam,Nyange,39.4157549475,-7.102976422499999,-11.75,NyangeDar es Salaam
Dar es Salaam,Nyau,39.3973539,-6.86608099,-27.0,NyauDar es Salaam
Dar es Salaam,Ofisi Ya Kata,39.3404686,-6.89422427,7.0,Ofisi Ya KataDar es Salaam
Dar es Salaam,Parokiani Kimbiji,39.53214169,-7.00752957,-15.0,Parokiani KimbijiDar es Salaam
Dar es Salaam,Pemba Mnazi Centre,39.50639315,-7.1619042,-14.5,Pemba Mnazi CentreDar es Salaam
Dar es Salaam,Puna Centre,39.53520249,-7.06760087,-12.5,Puna CentreDar es Salaam
Dar es Salaam,Ridhione,39.093244081111116,-6.648070554444445,49.666666666666664,RidhioneDar es Salaam
Dar es Salaam,Rufu,39.21359289,-6.98352072,11.0,RufuDar es Salaam
Dar es Salaam,Salanga,39.347962145,-6.850913368750001,-23.375,SalangaDar es Salaam
Dar es Salaam,Sara,39.48595694,-6.917055335000001,-12.5,SaraDar es Salaam
Dar es Salaam,Sekondari,39.53713175,-7.00196327,-19.0,SekondariDar es Salaam
Dar es Salaam,Sekondari Kimbiji,39.53550928,-7.00210279,-20.0,Sekondari KimbijiDar es Salaam
Dar es Salaam,Serikali Za Mitaa,39.42953307,-6.89257089,-1.0,Serikali Za MitaaDar es Salaam
Dar es Salaam,Serikari Ya Mtaa Ya Zamani,39.3538463,-6.85570546,-19.0,Serikari Ya Mtaa Ya ZamaniDar es Salaam
Dar es Salaam,Shirikisho,39.47305674,-6.9179474,-27.0,ShirikishoDar es Salaam
Dar es Salaam,Shule,39.5261829,-6.98686896,-14.0,ShuleDar es Salaam
Dar es Salaam,Shule Ya Msingi,39.41471479,-6.8638996,-42.0,Shule Ya MsingiDar es Salaam
Dar es Salaam,Shule Yamsingi Kizito Huonjwa,39.52530703,-6.98519084,-4.0,Shule Yamsingi Kizito HuonjwaDar es Salaam
Dar es Salaam,Shule/Police,39.42162338,-6.98517263,28.0,Shule/PoliceDar es Salaam
Dar es Salaam,Shuleni,39.46742280666666,-7.010136751111111,-15.222222222222221,ShuleniDar es Salaam
Dar es Salaam,Sokoni,39.33751876,-6.90076105,59.0,SokoniDar es Salaam
Dar es Salaam,Songani,39.429333683636365,-7.101654545454545,-16.818181818181817,SonganiDar es Salaam
Dar es Salaam,Soweto,39.31023416,-6.86957422,-24.0,SowetoDar es Salaam
Dar es Salaam,Tundwi Centre,39.43465261857143,-7.098047370000001,-8.285714285714286,Tundwi CentreDar es Salaam
Dar es Salaam,Ungindoni,39.35412581,-6.862175140000001,-20.0,UngindoniDar es Salaam
Dar es Salaam,Ungindoni Gari Bovu,39.34664076,-6.86787586,-1.0,Ungindoni Gari BovuDar es Salaam
Dar es Salaam,Ungindoni Kwa Bwazo,39.3563375,-6.85922578,-7.0,Ungindoni Kwa BwazoDar es Salaam
Dar es Salaam,Ungindoni Magengeni,39.35288608,-6.86146391,-3.0,Ungindoni MagengeniDar es Salaam
Dar es Salaam,Ungindoni Salanga,39.343808255,-6.861315805,-15.5,Ungindoni SalangaDar es Salaam
Dar es Salaam,Ungindoni Salannga,39.34679814,-6.86414768,-18.0,Ungindoni SalanngaDar es Salaam
Dar es Salaam,Uvumba,39.33665077,-6.88265065,3.0,UvumbaDar es Salaam
Dar es Salaam,Zahanati,39.47030549285715,-7.018609594285715,-22.285714285714285,ZahanatiDar es Salaam
Dar es Salaam,Zahanati 2,39.41307608,-6.865650099999999,-47.0,Zahanati 2Dar es Salaam
Dodoma,Abdu Jumbe,36.086518000000005,-6.78198738,0.0,Abdu JumbeDodoma
Dodoma,Abdujumbe,35.744951477499995,-6.030870520000001,0.0,AbdujumbeDodoma
Dodoma,Airport,36.492642939999996,-7.1096599,0.0,AirportDodoma
Dodoma,Alagwa,35.766429868,-4.611692339999999,0.0,AlagwaDodoma
Dodoma,Amani,35.87201851333333,-5.959997813333334,0.0,AmaniDodoma
Dodoma,Araa,35.93513295,-5.00470518,0.0,AraaDodoma
Dodoma,Araa Mkunjo,35.93619127,-5.00512835,0.0,Araa MkunjoDodoma
Dodoma,Atta Shule,35.9023252,-4.521169745,0.0,Atta ShuleDodoma
Dodoma,Ausiya,36.13080686000001,-4.94951847,0.0,AusiyaDodoma
Dodoma,Azimio,35.7401464915909,-6.2575081311363645,0.0,AzimioDodoma
Dodoma,Bagamoyo,36.12692563,-4.969639215,0.0,BagamoyoDodoma
Dodoma,Bahi M,35.30577397,-5.94228832,0.0,Bahi MDodoma
Dodoma,Balanga,36.04723617333334,-4.850005584999999,0.0,BalangaDodoma
Dodoma,Balankani,35.84589627,-5.49150751,0.0,BalankaniDodoma
Dodoma,Bambai,35.89007436,-5.02312108,0.0,BambaiDodoma
Dodoma,Banda La Ngozi,36.23643377,-5.00810682,0.0,Banda La NgoziDodoma
Dodoma,Banguma Shuleni,35.494343455,-5.272521415,0.0,Banguma ShuleniDodoma
Dodoma,Bara-Stendi,35.83543162,-4.730895395000001,0.0,Bara-StendiDodoma
Dodoma,Barabarani,35.892242924,-6.1437078839999995,0.0,BarabaraniDodoma
Dodoma,Barazani,35.67504094222223,-5.6332350177777775,0.0,BarazaniDodoma
Dodoma,Baura,35.8569922525,-4.643170925,0.0,BauraDodoma
Dodoma,Bereko Kurasini,35.74260941,-4.47171414,0.0,Bereko KurasiniDodoma
Dodoma,Bereko Mjini,35.7389828625,-4.449176995,0.0,Bereko MjiniDodoma
Dodoma,Bihawana,35.642909913333334,-6.269247923333334,0.0,BihawanaDodoma
Dodoma,Bilisee,35.17411885,-5.4399233,0.0,BiliseeDodoma
Dodoma,Bolisa,35.91393353,-4.6359083725,0.0,BolisaDodoma
Dodoma,Boma Ya Ngombe,36.05248174,-4.88268114,0.0,Boma Ya NgombeDodoma
Dodoma,Bomayangombe,36.14987731,-4.90772645,0.0,BomayangombeDodoma
Dodoma,Bomban,35.49022166666666,-5.794825366666667,0.0,BombanDodoma
Dodoma,Bombani,35.904681377272716,-5.522557030000001,0.0,BombaniDodoma
Dodoma,Bonden,35.52983267,-5.95860429,0.0,BondenDodoma
Dodoma,Bondeni,36.383028816666666,-6.48529099,0.0,BondeniDodoma
Dodoma,Boro,35.19925987500001,-5.1280361899999996,0.0,BoroDodoma
Dodoma,Boti,36.02521103,-5.63761812,0.0,BotiDodoma
Dodoma,Bukulu A,35.7608416,-4.6079325775,0.0,Bukulu ADodoma
Dodoma,Bukulu B,35.750636365000005,-4.5934783900000005,0.0,Bukulu BDodoma
Dodoma,Bumburyahe,35.77861443333334,-4.541583531666666,0.0,BumburyaheDodoma
Dodoma,Bumbuta A,35.949787199999996,-4.642621086666667,0.0,Bumbuta ADodoma
Dodoma,Bumbuta B,35.95241112,-4.62304048,0.0,Bumbuta BDodoma
Dodoma,Bustani,36.23440479999999,-5.00737188,0.0,BustaniDodoma
Dodoma,Butihama,36.14761723,-6.2043761,0.0,ButihamaDodoma
Dodoma,Bwagala,36.421320495,-6.316580935,0.0,BwagalaDodoma
Dodoma,Bwawan,35.4609945725,-6.069331475,0.0,BwawanDodoma
Dodoma,Bwawani,35.944628279999996,-5.52125851625,0.0,BwawaniDodoma
Dodoma,Bwawani A,36.21596957,-6.19838334,0.0,Bwawani ADodoma
Dodoma,Bwawani B,36.23490716,-6.17159079,0.0,Bwawani BDodoma
Dodoma,Chadunundu,36.35445404,-6.82826659,0.0,ChadununduDodoma
Dodoma,Chakanga,35.92241253,-4.63423087,0.0,ChakangaDodoma
Dodoma,Chakuku,36.24201810666667,-5.091296236666666,0.0,ChakukuDodoma
Dodoma,Chakwe,35.841707038,-4.583027486000001,0.0,ChakweDodoma
Dodoma,Chalangu A,36.32496122,-6.27968513,0.0,Chalangu ADodoma
Dodoma,Chalula,35.84530266,-6.36082621,0.0,ChalulaDodoma
Dodoma,Chambu,35.62086643,-5.834595545,0.0,ChambuDodoma
Dodoma,Chambuzi,35.8394498,-4.73061402,0.0,ChambuziDodoma
Dodoma,Chamganga,36.203644575,-6.92075408,0.0,ChamgangaDodoma
Dodoma,Chamnye,36.46047834,-6.332290416666666,0.0,ChamnyeDodoma
Dodoma,Champera,36.37031951,-6.504558845,0.0,ChamperaDodoma
Dodoma,Chamtumile,36.39824713,-6.74121708,0.0,ChamtumileDodoma
Dodoma,Chamuwondo,36.18612565,-6.8532034,0.0,ChamuwondoDodoma
Dodoma,Chamwi,35.61473542499999,-5.651672980000001,0.0,ChamwiDodoma
Dodoma,Chamwiko,35.75958273,-6.220709149999999,0.0,ChamwikoDodoma
Dodoma,Chamwino,35.82087354333333,-6.1359810433333335,0.0,ChamwinoDodoma
Dodoma,Chamwino A,36.55595415333334,-6.535899956666666,0.0,Chamwino ADodoma
Dodoma,Chang'Ombe,36.388384170740736,-6.422112232592592,0.0,Chang'OmbeDodoma
Dodoma,Chang'Ombe A,36.57570301,-6.47460458,0.0,Chang'Ombe ADodoma
Dodoma,Chang'Ombe B,36.57509285,-6.47685743,0.0,Chang'Ombe BDodoma
Dodoma,Changano,36.36144449,-7.29091915,0.0,ChanganoDodoma
Dodoma,Changombe,35.960034255714284,-5.008341231428571,0.0,ChangombeDodoma
Dodoma,Changombe B,36.28785017,-5.18035998,0.0,Changombe BDodoma
Dodoma,Chanzage,35.93125746,-5.949614415,0.0,ChanzageDodoma
Dodoma,Chapa,35.54906022,-6.19605016,0.0,ChapaDodoma
Dodoma,Chase-Shuleni,35.55483445,-5.59244997,0.0,Chase-ShuleniDodoma
Dodoma,Chawasi,35.844870809999996,-4.561852303333333,0.0,ChawasiDodoma
Dodoma,Cheke,35.839647604999996,-4.631591425,0.0,ChekeDodoma
Dodoma,Chemch,35.49365752333333,-5.876267470000001,0.0,ChemchDodoma
Dodoma,Chemchem,35.82930076,-4.37864102,0.0,ChemchemDodoma
Dodoma,Chengere,35.98316568,-5.0542942,0.0,ChengereDodoma
Dodoma,Chibay,35.68052599,-5.97078433,0.0,ChibayDodoma
Dodoma,Chibefu,35.73212357,-5.5328109350000005,0.0,ChibefuDodoma
Dodoma,Chibwa Cha Mama,36.0829023,-6.39764225,0.0,Chibwa Cha MamaDodoma
Dodoma,Chibwechangula,36.53428933500001,-6.379285435,0.0,ChibwechangulaDodoma
Dodoma,Chidachi,35.67844446,-6.372486169999999,0.0,ChidachiDodoma
Dodoma,Chididimo,35.896279155,-6.15103893,0.0,ChididimoDodoma
Dodoma,Chidumule,36.39695227333334,-6.732324716666667,0.0,ChidumuleDodoma
Dodoma,Chihembe,35.941713666666665,-6.1373025,0.0,ChihembeDodoma
Dodoma,Chihikwi,35.67300695,-6.037875583333334,0.0,ChihikwiDodoma
Dodoma,Chihoni,35.610678817499995,-6.1189907425,0.0,ChihoniDodoma
Dodoma,Chijedu,36.183014625,-6.724076650000001,0.0,ChijeduDodoma
Dodoma,Chikaluli,35.91120339,-4.787659099999999,0.0,ChikaluliDodoma
Dodoma,Chikaluri,35.919506235,-4.7673746900000005,0.0,ChikaluriDodoma
Dodoma,Chikola,35.81184588333334,-6.697891473333333,0.0,ChikolaDodoma
Dodoma,Chilam,35.37642134,-6.24376904,0.0,ChilamDodoma
Dodoma,Chilan,35.65776761,-6.53273452,0.0,ChilanDodoma
Dodoma,Chilej,35.38704006333334,-6.044179303333333,0.0,ChilejDodoma
Dodoma,Chilenga,36.39856938,-6.73926248,0.0,ChilengaDodoma
Dodoma,Chiloloma,35.97147042857143,-5.923129025714286,0.0,ChilolomaDodoma
Dodoma,Chimag,35.451608965,-6.3614172149999995,0.0,ChimagDodoma
Dodoma,Chimagae,36.14213232,-6.66839242,0.0,ChimagaeDodoma
Dodoma,Chimala,35.760286405,-6.228640609999999,0.0,ChimalaDodoma
Dodoma,Chimen,35.38920338,-6.11365545,0.0,ChimenDodoma
Dodoma,Chimi,35.94480419,-5.02973532,0.0,ChimiDodoma
Dodoma,China,36.1123271825,-5.050821474999999,0.0,ChinaDodoma
Dodoma,Chinog,35.55842555,-6.3469304950000005,0.0,ChinogDodoma
Dodoma,Chinoje,36.038804796666675,-6.860561886666667,0.0,ChinojeDodoma
Dodoma,Chinyele,35.82649785,-6.12017504,0.0,ChinyeleDodoma
Dodoma,Chinyi,35.66444336,-6.524663435,0.0,ChinyiDodoma
Dodoma,Chinyika,35.49225181,-5.63375806,0.0,ChinyikaDodoma
Dodoma,Chinzachi,35.60132139,-5.99226595,0.0,ChinzachiDodoma
Dodoma,Chisabi,35.85285839,-6.00670825,0.0,ChisabiDodoma
Dodoma,Chisale,36.28561303,-6.47074838,0.0,ChisaleDodoma
Dodoma,Chisale A,36.28576983,-6.46601538,0.0,Chisale ADodoma
Dodoma,Chisale B,36.289065705,-6.4691939949999995,0.0,Chisale BDodoma
Dodoma,Chisewo,35.76206787666666,-6.056887653333334,0.0,ChisewoDodoma
Dodoma,Chisichili,35.72189259636363,-6.268247053636364,0.0,ChisichiliDodoma
Dodoma,Chita,35.87799398,-6.072637665,0.0,ChitaDodoma
Dodoma,Chitel,35.575727905,-5.859590326666666,0.0,ChitelDodoma
Dodoma,Chiteleche,35.55730953,-6.2960623,0.0,ChitelecheDodoma
Dodoma,Chitereche,35.586666335000004,-6.7078057399999995,0.0,ChiterecheDodoma
Dodoma,Chitumbula,36.07160178,-6.58784635,0.0,ChitumbulaDodoma
Dodoma,Chiujila,36.22396993666666,-6.732011503333332,0.0,ChiujilaDodoma
Dodoma,Chiwan,35.70725727,-6.408537065,0.0,ChiwanDodoma
Dodoma,Chiwanga,35.81852518666667,-6.33492857,0.0,ChiwangaDodoma
Dodoma,Chiwon,35.69504433,-5.85086273,0.0,ChiwonDodoma
Dodoma,Chizomoche,35.638491515,-6.317269928333334,0.0,ChizomocheDodoma
Dodoma,Chjmen,35.39218619,-6.11248924,0.0,ChjmenDodoma
Dodoma,Choro,35.39019716,-5.2986606,0.0,ChoroDodoma
Dodoma,Cikolola,35.67522325,-6.74698782,0.0,CikololaDodoma
Dodoma,Dabiri,36.09574003,-4.73064859,0.0,DabiriDodoma
Dodoma,Dachenche,35.87028848,-4.41702858,0.0,DachencheDodoma
Dodoma,Dar Es Salaam,36.51373405,-7.28083179,0.0,Dar Es SalaamDodoma
Dodoma,Darabi,35.83411272,-4.60935057,0.0,DarabiDodoma
Dodoma,Darajani,35.82764500000001,-4.36052366,0.0,DarajaniDodoma
Dodoma,Dedu,35.373169985000004,-5.29685367,0.0,DeduDodoma
Dodoma,Dinda,36.00261107,-5.1094985600000005,0.0,DindaDodoma
Dodoma,Dirawa,35.82924057,-4.73741578,0.0,DirawaDodoma
Dodoma,Disa Mtaoni,35.82544308833334,-4.4623777250000005,0.0,Disa MtaoniDodoma
Dodoma,Dmp,36.25689504,-6.96435438,0.0,DmpDodoma
Dodoma,Dodomasee,35.40348487,-5.26134387,0.0,DodomaseeDodoma
Dodoma,Dongo,36.22306336,-5.479758646666666,0.0,DongoDodoma
Dodoma,Doyo,35.35265658,-5.17881846,0.0,DoyoDodoma
Dodoma,Elimu,35.850079709999996,-6.361322376666666,0.0,ElimuDodoma
Dodoma,Erenzesee,35.63576762,-5.48527401,0.0,ErenzeseeDodoma
Dodoma,Foye,36.1108155,-4.917090225,0.0,FoyeDodoma
Dodoma,Galani A,36.46897449,-6.74665298,0.0,Galani ADodoma
Dodoma,Galani B,36.46895338,-6.74984219,0.0,Galani BDodoma
Dodoma,Ganikwa,36.08833027,-5.77884127,0.0,GanikwaDodoma
Dodoma,Gayu,35.89164946666667,-4.76018619,0.0,GayuDodoma
Dodoma,Gereza-Kinganga,35.70066665666666,-5.022130896666667,0.0,Gereza-KingangaDodoma
Dodoma,Ghana,35.89378179,-6.38347804,0.0,GhanaDodoma
Dodoma,Ghana B,35.89355529,-6.38388296,0.0,Ghana BDodoma
Dodoma,Ghung'Ugu,35.9113134,-6.16566651,0.0,Ghung'UguDodoma
Dodoma,Go Down,35.86336982,-5.16874142,0.0,Go DownDodoma
Dodoma,Goba,35.71414187,-6.23024315,0.0,GobaDodoma
Dodoma,Gongo,35.76165757,-4.531060999999999,0.0,GongoDodoma
Dodoma,Gongolamboto,36.12489486,-6.20673729,0.0,GongolambotoDodoma
Dodoma,Gubali,35.829463450000006,-4.581229688,0.0,GubaliDodoma
Dodoma,Guluma,35.73709867,-4.98634299,0.0,GulumaDodoma
Dodoma,Gumbu-Kati,35.39413854333334,-5.290722893333334,0.0,Gumbu-KatiDodoma
Dodoma,Gunga,35.42871336,-5.57146918,0.0,GungaDodoma
Dodoma,Gwaiba,35.88835142,-5.2206183,0.0,GwaibaDodoma
Dodoma,Gwandi - Kati,35.823472820000006,-5.302673840000001,0.0,Gwandi - KatiDodoma
Dodoma,Hado,35.74471608,-4.536110425,0.0,HadoDodoma
Dodoma,Hamia A,35.399373944999994,-5.66009611,0.0,Hamia ADodoma
Dodoma,Hamia B,35.40038392,-5.6478226849999995,0.0,Hamia BDodoma
Dodoma,Hangwe,36.28922926,-6.47401391,0.0,HangweDodoma
Dodoma,Hasu,35.96042135,-4.78671712,0.0,HasuDodoma
Dodoma,Haubi Maziwani,35.95815256666667,-4.8041387633333335,0.0,Haubi MaziwaniDodoma
Dodoma,Himbo,35.69047713,-5.92027814,0.0,HimboDodoma
Dodoma,Hospit,35.509635675,-6.153790735,0.0,HospitDodoma
Dodoma,Huduma,35.38355573,-5.32096303,0.0,HudumaDodoma
Dodoma,Humai Kati,35.77755873,-4.66607474,0.0,Humai KatiDodoma
Dodoma,Humbai,35.64506307,-5.83676262,0.0,HumbaiDodoma
Dodoma,Humekwa - Kati,35.704850594999996,-5.527469155,0.0,Humekwa - KatiDodoma
Dodoma,Huzi,35.48725502,-6.65025914,0.0,HuziDodoma
Dodoma,Ibanda,36.306772685,-6.7159277500000005,0.0,IbandaDodoma
Dodoma,Ibungere,35.89531112,-4.4858934,0.0,IbungereDodoma
Dodoma,Idindaumba,36.277121775,-6.743795875,0.0,IdindaumbaDodoma
Dodoma,Idugala,35.57891573,-6.69175327,0.0,IdugalaDodoma
Dodoma,Idunda,36.38297409,-6.70454392,0.0,IdundaDodoma
Dodoma,Idunda Juu,36.37389901,-6.70643417,0.0,Idunda JuuDodoma
Dodoma,Igede,36.63624650000001,-6.90942963,0.0,IgedeDodoma
Dodoma,Igunga A,36.26589686333333,-6.95833717,0.0,Igunga ADodoma
Dodoma,Igunga B,36.26257968,-6.959981475,0.0,Igunga BDodoma
Dodoma,Iguruwi,36.598053,-7.01605033,0.0,IguruwiDodoma
Dodoma,Ihala,35.996370728,-7.026087165999999,0.0,IhalaDodoma
Dodoma,Ihanza,36.28753265,-6.65218395,0.0,IhanzaDodoma
Dodoma,Ihwa,36.49807768,-7.03154219,0.0,IhwaDodoma
Dodoma,Ikogolo,35.82893524,-6.03472586,0.0,IkogoloDodoma
Dodoma,Ikombo,36.088899585,-5.727379225,0.0,IkomboDodoma
Dodoma,Ikombo A,36.08239992,-5.717684535,0.0,Ikombo ADodoma
Dodoma,Ikombo B,36.08139685,-5.70732162,0.0,Ikombo BDodoma
Dodoma,Ikongola Juu,36.370882495000004,-6.7176128550000005,0.0,Ikongola JuuDodoma
Dodoma,Ikongola Kati,36.37043729,-6.71469449,0.0,Ikongola KatiDodoma
Dodoma,Ikova,35.915779485,-4.7007558199999995,0.0,IkovaDodoma
Dodoma,Ikulu,36.41288726130435,-6.312270954782608,0.0,IkuluDodoma
Dodoma,Ilala,36.22198134,-5.751071125,0.0,IlalaDodoma
Dodoma,Ilasee-Kati,35.34186038,-5.1754343,0.0,Ilasee-KatiDodoma
Dodoma,Ilasi,36.60147684,-7.00520896,0.0,IlasiDodoma
Dodoma,Ilembula,36.336733755000004,-6.712897328333334,0.0,IlembulaDodoma
Dodoma,Ilewel,35.33001742,-6.4268492,0.0,IlewelDodoma
Dodoma,Ilewelo,35.84442851,-6.77019733,0.0,IleweloDodoma
Dodoma,Ilolo,36.072993818125006,-6.3946633662500005,0.0,IloloDodoma
Dodoma,Ilolo Chini,36.42416531000001,-6.938055970000001,0.0,Ilolo ChiniDodoma
Dodoma,Ilolo Kati,36.42137451,-6.93511564,0.0,Ilolo KatiDodoma
Dodoma,Ilolwi,36.02039908,-4.96328638,0.0,IlolwiDodoma
Dodoma,Imonyo,35.23299908,-6.23322313,0.0,ImonyoDodoma
Dodoma,Ipandu,35.41042463,-6.14134343,0.0,IpanduDodoma
Dodoma,Ipera,36.435279752,-6.887833082,0.0,IperaDodoma
Dodoma,Ipondelo,36.382945225,-6.62847549,0.0,IpondeloDodoma
Dodoma,Iramba,36.210113865000004,-6.8259354175,0.0,IrambaDodoma
Dodoma,Iraq,36.14374507,-5.26702545,0.0,IraqDodoma
Dodoma,Irendi A,36.11237521,-4.91391433,0.0,Irendi ADodoma
Dodoma,Irendi B,36.10482049,-4.91923472,0.0,Irendi BDodoma
Dodoma,Irongoriru,36.03205222666667,-4.72350684,0.0,IrongoriruDodoma
Dodoma,Isagal,35.24708322,-5.95574621,0.0,IsagalDodoma
Dodoma,Isalavanu,36.26794749,-6.736101799999999,0.0,IsalavanuDodoma
Dodoma,Isalaza,36.083637857999996,-6.702928654,0.0,IsalazaDodoma
Dodoma,Isanga,35.79477141,-5.855114715,0.0,IsangaDodoma
Dodoma,Isangha,35.96800505,-6.43049814,0.0,IsanghaDodoma
Dodoma,Isari,35.58061842,-4.81430027,0.0,IsariDodoma
Dodoma,Isasamambu,36.2637186,-6.6629703,0.0,IsasamambuDodoma
Dodoma,Isingu A,36.477806279999996,-6.417203590000001,0.0,Isingu ADodoma
Dodoma,Isingu B,36.48137810666666,-6.423362593333333,0.0,Isingu BDodoma
Dodoma,Isusumya,36.23570411,-5.00520209,0.0,IsusumyaDodoma
Dodoma,Isuzaje,36.58713822,-6.50025529,0.0,IsuzajeDodoma
Dodoma,Italaliza,36.272846055,-6.639778485,0.0,ItalalizaDodoma
Dodoma,Italula,36.38718336,-6.7941285350000005,0.0,ItalulaDodoma
Dodoma,Itamya,36.0260709,-4.95031718,0.0,ItamyaDodoma
Dodoma,Itoha,35.9510422,-4.68137835,0.0,ItohaDodoma
Dodoma,Itongwi,35.95967189,-4.82609559,0.0,ItongwiDodoma
Dodoma,Itumbi,36.11360785,-6.74319221,0.0,ItumbiDodoma
Dodoma,Itundwi,35.85295085999999,-4.649224739999999,0.0,ItundwiDodoma
Dodoma,Iwanginyi,36.4861532,-6.95335278,0.0,IwanginyiDodoma
Dodoma,Iwelewele,35.627987675,-6.2811174649999995,0.0,IweleweleDodoma
Dodoma,Iyenjere,35.90447494,-4.53068888,0.0,IyenjereDodoma
Dodoma,Iyoyo,35.84699094,-6.310468545,0.0,IyoyoDodoma
Dodoma,Izava,36.26138066,-5.55699274,0.0,IzavaDodoma
Dodoma,Jamhuri,35.974646581428566,-6.227791068571429,0.0,JamhuriDodoma
Dodoma,Jamuhu,35.65983871,-6.3685025799999995,0.0,JamuhuDodoma
Dodoma,Jamuhuri,35.9711842375,-7.1085573349999995,0.0,JamuhuriDodoma
Dodoma,Jenjelima,35.30303885,-5.23837976,0.0,JenjelimaDodoma
Dodoma,Jenjeni,36.12187273,-6.04190109,0.0,JenjeniDodoma
Dodoma,Jinjo Kati,36.16866957,-5.02665129,0.0,Jinjo KatiDodoma
Dodoma,Jobu,35.836900215,-6.490091215,0.0,JobuDodoma
Dodoma,Juhudi,35.82224460454545,-6.125984167272728,0.0,JuhudiDodoma
Dodoma,Juhudi Bwawani,36.20716467,-6.12559977,0.0,Juhudi BwawaniDodoma
Dodoma,Kabodi,35.36343358,-5.7302341,0.0,KabodiDodoma
Dodoma,Kagera,35.35130299749999,-6.23859429,0.0,KageraDodoma
Dodoma,Kahama,36.22240778,-6.14672391,0.0,KahamaDodoma
Dodoma,Kalamba Juu,35.93704445,-4.81809006,0.0,Kalamba JuuDodoma
Dodoma,Kalembo,35.91798652,-6.62795484,0.0,KalemboDodoma
Dodoma,Kaloleni,36.30846405,-6.3599299125,0.0,KaloleniDodoma
Dodoma,Kaloleni B,36.630692874999994,-6.45253299,0.0,Kaloleni BDodoma
Dodoma,Kambarage,36.192620535,-6.5929007649999996,0.0,KambarageDodoma
Dodoma,Kambarage A,36.22908373,-6.1579744000000005,0.0,Kambarage ADodoma
Dodoma,Kambi Ya Fisi,35.76103941,-4.6176645275,0.0,Kambi Ya FisiDodoma
Dodoma,Kambi Ya Nyasa,35.90821744,-5.30586932,0.0,Kambi Ya NyasaDodoma
Dodoma,Kandamiza,36.30296453,-5.16822558,0.0,KandamizaDodoma
Dodoma,Kanindo,35.62944521,-4.90388311,0.0,KanindoDodoma
Dodoma,Kanisa,35.66447151,-5.9467599149999995,0.0,KanisaDodoma
Dodoma,Kanisani,35.92440725,-6.48015161,0.0,KanisaniDodoma
Dodoma,Karume,35.977965409642856,-5.91173668642857,0.0,KarumeDodoma
Dodoma,Kasela,35.38106968,-5.74036967,0.0,KaselaDodoma
Dodoma,Kati,36.13615294517241,-6.049131161724138,0.0,KatiDodoma
Dodoma,Kaunda,35.770140341,-6.419034044999999,0.0,KaundaDodoma
Dodoma,Kawawa,35.94987273688525,-6.103438099508197,0.0,KawawaDodoma
Dodoma,Kazania,36.125003240000005,-6.343478756666666,0.0,KazaniaDodoma
Dodoma,Kazemgulu,36.18204823,-6.20373262,0.0,KazemguluDodoma
Dodoma,Kempu B,36.20722572,-6.12556672,0.0,Kempu BDodoma
Dodoma,Khatsa,35.14748498,-5.10424528,0.0,KhatsaDodoma
Dodoma,Kibaha,36.43867153,-6.80358385,0.0,KibahaDodoma
Dodoma,Kibalali,36.42909418,-7.22046025,0.0,KibalaliDodoma
Dodoma,Kibandani,35.899297426666664,-4.633252986666666,0.0,KibandaniDodoma
Dodoma,Kibandani-Kati,35.90017905,-4.63205713,0.0,Kibandani-KatiDodoma
Dodoma,Kibaoni,35.936483355,-6.291952670000001,0.0,KibaoniDodoma
Dodoma,Kibaya,36.08956914,-4.92755116,0.0,KibayaDodoma
Dodoma,Kiboryo,36.08074749,-4.75314515,0.0,KiboryoDodoma
Dodoma,Kichan,35.4335614625,-5.930338655,0.0,KichanDodoma
Dodoma,Kichangani,36.18819319666667,-6.019887406666666,0.0,KichanganiDodoma
Dodoma,Kidabaga,36.32804043,-6.74609451,0.0,KidabagaDodoma
Dodoma,Kidongo Cheusi,35.86203165,-4.94639098,0.0,Kidongo CheusiDodoma
Dodoma,Kidunda,36.38281378,-6.70461672,0.0,KidundaDodoma
Dodoma,Kiegea,36.23769402,-6.16365631,0.0,KiegeaDodoma
Dodoma,Kiegea Shuleni,36.239213946666666,-6.16078718,0.0,Kiegea ShuleniDodoma
Dodoma,Kifukulwa,36.02491550000001,-4.9431131,0.0,KifukulwaDodoma
Dodoma,Kigamb,35.54998978,-6.20596095,0.0,KigambDodoma
Dodoma,Kigamboni,36.17687192,-6.09344308,0.0,KigamboniDodoma
Dodoma,Kiheka,36.53212012,-7.03989017,0.0,KihekaDodoma
Dodoma,Kihesa,36.51392259,-7.27799589,0.0,KihesaDodoma
Dodoma,Kijaji,35.91381150333333,-4.65097501,0.0,KijajiDodoma
Dodoma,Kijiweni,35.78779121,-4.5615533175000005,0.0,KijiweniDodoma
Dodoma,Kijueni,36.65804855,-6.70918927,0.0,KijueniDodoma
Dodoma,Kikurunge,36.37822358,-6.71203255,0.0,KikurungeDodoma
Dodoma,Kikurunge Chini,36.379468083333336,-6.710255190000001,0.0,Kikurunge ChiniDodoma
Dodoma,Kikurunge Juu,36.37553174,-6.71351626,0.0,Kikurunge JuuDodoma
Dodoma,Kikuyu,35.390807839999994,-6.29130936,0.0,KikuyuDodoma
Dodoma,Kikwama,36.17936589,-5.72925389,0.0,KikwamaDodoma
Dodoma,Kikwete,35.94737333,-6.395372943333334,0.0,KikweteDodoma
Dodoma,Kilimahewa,36.284707628,-6.645369991999999,0.0,KilimahewaDodoma
Dodoma,Kilimani,36.120737500000004,-6.6030988950000005,0.0,KilimaniDodoma
Dodoma,Kilimba A,35.23821619,-5.16824788,0.0,Kilimba ADodoma
Dodoma,Kilimba B,35.23839901,-5.17273717,0.0,Kilimba BDodoma
Dodoma,Kilimo,35.55418122333333,-6.63278445,0.0,KilimoDodoma
Dodoma,Kimambo,35.85580426,-5.40549644,0.0,KimamboDodoma
Dodoma,Kimbogolo,35.82434419,-5.30540954,0.0,KimbogoloDodoma
Dodoma,Kimuli,36.32669156,-6.740347355,0.0,KimuliDodoma
Dodoma,Kimunda,35.84266267,-4.51113745,0.0,KimundaDodoma
Dodoma,Kinangali,35.64152195,-6.08943147,0.0,KinangaliDodoma
Dodoma,Kindu,36.083445525,-5.114297035,0.0,KinduDodoma
Dodoma,Kinyasi Kati,36.038598394999994,-4.731100915000001,0.0,Kinyasi KatiDodoma
Dodoma,Kioli,35.69661462,-5.40699126,0.0,KioliDodoma
Dodoma,Kisaki Kati,35.96031562,-4.56427431,0.0,Kisaki KatiDodoma
Dodoma,Kisamo,35.66197779,-6.37396304,0.0,KisamoDodoma
Dodoma,Kisarawe,36.50845304,-6.39325949,0.0,KisaraweDodoma
Dodoma,Kisimani,35.966159276666666,-6.020216073333333,0.0,KisimaniDodoma
Dodoma,Kisondoko,36.2204264325,-4.732669995,0.0,KisondokoDodoma
Dodoma,Kitake,35.94472591,-5.03471616,0.0,KitakeDodoma
Dodoma,Kitengeni,36.29864953,-5.17059869,0.0,KitengeniDodoma
Dodoma,Kituoni,36.537404465,-6.479400699999999,0.0,KituoniDodoma
Dodoma,Kivuko,35.68436362333333,-5.923994919999999,0.0,KivukoDodoma
Dodoma,Kivukoni,36.28366339,-6.061752186666666,0.0,KivukoniDodoma
Dodoma,Kivukooni,35.75516839,-6.49255592,0.0,KivukooniDodoma
Dodoma,Kiwanja Cha Mbuni,35.90744514,-4.60073745,0.0,Kiwanja Cha MbuniDodoma
Dodoma,Kizilanzala,36.38647415,-6.787855145,0.0,KizilanzalaDodoma
Dodoma,Kizota,35.987191509999995,-6.232840329999999,0.0,KizotaDodoma
Dodoma,Kodimo,35.96611957,-5.14074084,0.0,KodimoDodoma
Dodoma,Kolimba,35.934970115714286,-6.213390722857143,0.0,KolimbaDodoma
Dodoma,Kongwa,35.318556863333335,-5.385327283333333,0.0,KongwaDodoma
Dodoma,Kubi,35.25602029,-5.56673593,0.0,KubiDodoma
Dodoma,Kulusi,35.28050862,-5.19786904,0.0,KulusiDodoma
Dodoma,Kunai,35.88095898,-4.8796872449999995,0.0,KunaiDodoma
Dodoma,Kunduchi,35.76455197,-5.05928036,0.0,KunduchiDodoma
Dodoma,Kungulu,36.13271479,-4.94390025,0.0,KunguluDodoma
Dodoma,Kurasini,35.745982495,-4.466205,0.0,KurasiniDodoma
Dodoma,Kurio-Kati,35.402339205000004,-5.2458285,0.0,Kurio-KatiDodoma
Dodoma,Kurio-Tamka,35.34639011,-5.24026034,0.0,Kurio-TamkaDodoma
Dodoma,Kusenha,35.760469625,-6.3094319975,0.0,KusenhaDodoma
Dodoma,Kusila,36.12455604,-5.80322139,0.0,KusilaDodoma
Dodoma,Kuuta,35.953612396666664,-4.773739503333332,0.0,KuutaDodoma
Dodoma,Kwadelo Mjini,36.14400665666667,-4.903126673333333,0.0,Kwadelo MjiniDodoma
Dodoma,Kwadino,35.997985220000004,-4.521376989999999,0.0,KwadinoDodoma
Dodoma,Kwampichi,36.09804049,-4.92292759,0.0,KwampichiDodoma
Dodoma,Kwamsami,36.12703842,-5.014824485,0.0,KwamsamiDodoma
Dodoma,Kwankwanya,35.798161936666666,-4.44565817,0.0,KwankwanyaDodoma
Dodoma,Kwariji,36.05854811,-4.84245745,0.0,KwarijiDodoma
Dodoma,Lake Manyara,35.86348495,-5.973167785,0.0,Lake ManyaraDodoma
Dodoma,Lembo,35.740154073333336,-4.55213765,0.0,LemboDodoma
Dodoma,Ludega,36.36166158,-7.01632882,0.0,LudegaDodoma
Dodoma,Lufita,36.437827915,-7.224773325,0.0,LufitaDodoma
Dodoma,Lugalo,36.29533248,-6.70547576,0.0,LugaloDodoma
Dodoma,Lugolofu,36.52859966,-6.96054606,0.0,LugolofuDodoma
Dodoma,Lukali,35.51007372,-5.7245550000000005,0.0,LukaliDodoma
Dodoma,Lunda,35.91513169,-4.64303471,0.0,LundaDodoma
Dodoma,Lupeta,36.540869695,-6.389310135000001,0.0,LupetaDodoma
Dodoma,Lupilo,35.9496180975,-6.136036605,0.0,LupiloDodoma
Dodoma,Lusaka,35.99887343,-4.7090484,0.0,LusakaDodoma
Dodoma,Lusangi,35.92504953,-4.77950875,0.0,LusangiDodoma
Dodoma,Lusind,35.71016464571428,-6.080265464285715,0.0,LusindDodoma
Dodoma,Lusinde,35.93508828749999,-6.261147986666668,0.0,LusindeDodoma
Dodoma,Lutwina,36.415606545,-6.93048337,0.0,LutwinaDodoma
Dodoma,Luvai,35.97343369,-5.00056581,0.0,LuvaiDodoma
Dodoma,Luvai A,35.84145744,-4.523791103333333,0.0,Luvai ADodoma
Dodoma,Luvai B,35.83789851,-4.52342892,0.0,Luvai BDodoma
Dodoma,Lwatu,35.57094564,-6.34244239,0.0,LwatuDodoma
Dodoma,Lwihomelo,36.09820036,-6.73893391,0.0,LwihomeloDodoma
Dodoma,Maata A,36.16458541,-6.10009153,0.0,Maata ADodoma
Dodoma,Mabati,35.531786,-5.87211803,0.0,MabatiDodoma
Dodoma,Mabatini,36.09527761,-6.58630048,0.0,MabatiniDodoma
Dodoma,Mabatini A,36.3954871,-6.65973396,0.0,Mabatini ADodoma
Dodoma,Mabatini B,36.39353266,-6.65674692,0.0,Mabatini BDodoma
Dodoma,Mabwe,35.38290636,-6.09773556,0.0,MabweDodoma
Dodoma,Mabwe Matitu,36.57697933,-6.48020744,0.0,Mabwe MatituDodoma
Dodoma,Machaka,35.835098075,-6.1270672600000005,0.0,MachakaDodoma
Dodoma,Machin,35.6626932,-6.51704967,0.0,MachinDodoma
Dodoma,Machinjoni,35.8186287575,-4.497246737499999,0.0,MachinjoniDodoma
