region,subvillage,longitude,latitude,gps_height,key
Arusha,Afya,36.61166336266667,-3.2990573886666663,1520.9333333333334,AfyaArusha
Arusha,Ahara,35.69874413,-2.1743774,1359.0,AharaArusha
Arusha,Alairataat,36.152924793333334,-2.8879630600000006,1670.3333333333333,AlairataatArusha
Arusha,Alakirikir,36.416604575,-2.435743965,1613.0,AlakirikirArusha
Arusha,Alasai,36.39363021,-3.24930342,1795.0,AlasaiArusha
Arusha,Aleilelai,35.700244245,-2.9581275624999996,2472.75,AleilelaiArusha
Arusha,Alsini,35.83732718,-3.2752822000000004,1547.0,AlsiniArusha
Arusha,Ambara,35.69700061,-3.52476155,1449.0,AmbaraArusha
Arusha,Ambureni,36.75247599,-3.3652556225,1412.25,AmbureniArusha
Arusha,Arahati,35.610595585,-3.5246188524999997,1494.25,ArahatiArusha
Arusha,Arashi,35.50578716333333,-2.374830343333333,1905.3333333333333,ArashiArusha
Arusha,Arati,35.664815874,-3.4893968040000005,1380.8,AratiArusha
Arusha,Arauyo,36.88486437571429,-3.3179345071428576,1372.5714285714287,ArauyoArusha
Arusha,Ariahati,35.63843601,-3.53763724,1455.0,AriahatiArusha
Arusha,Arkaria,36.31446548,-3.3317632660000003,1462.8,ArkariaArusha
Arusha,Arudeko,36.88018984454545,-3.3680418872727276,1161.2727272727273,ArudekoArusha
Arusha,Ascarida,36.77979398,-2.543262,1315.0,AscaridaArusha
Arusha,Athin Kati,35.66681041,-3.4041645,1449.0,Athin KatiArusha
Arusha,Athni Mwisho,35.67359224,-3.42660474,1421.0,Athni MwishoArusha
Arusha,Atsin,35.83961593,-3.26822637,1607.0,AtsinArusha
Arusha,Atsini,35.836435085,-3.269311785,1581.5,AtsiniArusha
Arusha,Ayarati,35.66128416,-3.50233568,1380.0,AyaratiArusha
Arusha,Bagayu,35.69267098,-3.48596691,1364.5,BagayuArusha
Arusha,Baqari,35.65966485,-3.39250142,1441.0,BaqariArusha
Arusha,Barae,35.62401391,-3.47143149,1361.0,BaraeArusha
Arusha,Barai,35.8377038075,-3.2346592525,1843.25,BaraiArusha
Arusha,Baraka,35.901650075000006,-3.3487133725,976.0,BarakaArusha
Arusha,Barazani,35.668774545000005,-3.33434258,1526.5,BarazaniArusha
Arusha,Bare A,35.667009198,-3.4485182640000005,1390.6,Bare AArusha
Arusha,Barray,35.36786067333333,-3.534715906666667,1073.3333333333333,BarrayArusha
Arusha,Bomba,35.95525902,-3.2197156166666665,1066.6666666666667,BombaArusha
Arusha,Bonde La Faru,35.882531404999995,-3.2156883499999998,1775.0,Bonde La FaruArusha
Arusha,Bondeni,36.8290710932,-3.4026021520000005,1237.6,BondeniArusha
Arusha,Bugharga,35.2982029,-3.5191361000000003,1029.0,BughargaArusha
Arusha,Buguruni,36.786327400000005,-2.551947656666667,1318.6666666666667,BuguruniArusha
Arusha,Bukarga,35.293842100000006,-3.51598399,1032.0,BukargaArusha
Arusha,Bulati,35.80213044,-2.984859115,2566.5,BulatiArusha
Arusha,Buluga,36.84118035,-3.54259598,954.0,BulugaArusha
Arusha,Burka,36.64234653,-3.40903954,1325.0,BurkaArusha
Arusha,Bwawani,36.812211212758626,-3.2023516782758623,1455.1379310344828,BwawaniArusha
Arusha,Center,36.773369540625,-3.2838573343750004,1389.6875,CenterArusha
Arusha,Chemchem,36.76039933727273,-3.4080470036363635,1193.8181818181818,ChemchemArusha
Arusha,Chini,36.92672133,-3.56338515,915.0,ChiniArusha
Arusha,Christmas,37.00367065,-3.35541575,974.0,ChristmasArusha
Arusha,Creta,35.6674934,-3.53162566,1454.0,CretaArusha
Arusha,D/Magharibi,35.5949178725,-3.577811525,1513.25,D/MagharibiArusha
Arusha,D/Mashariki,35.61716649571429,-3.578592738571428,1527.2857142857142,D/MasharikiArusha
Arusha,Daire,36.84834799,-3.44303737,1030.0,DaireArusha
Arusha,Damu,36.785679575,-3.3455426900000003,1415.0,DamuArusha
Arusha,Daraja2,36.689861,-3.38695835,1333.0,Daraja2Arusha
Arusha,Darajani,35.892461125000004,-3.5074612825,1103.625,DarajaniArusha
Arusha,Digodigo Mjini,35.73234066333333,-2.144877245,1296.0,Digodigo MjiniArusha
Arusha,Dipu,36.917662917499996,-3.5432735600000003,925.5,DipuArusha
Arusha,Dofa,35.61035184166666,-3.3671764950000003,1495.3333333333333,DofaArusha
Arusha,Duka Bovu,36.485180936,-3.40554995,1301.2,Duka BovuArusha
Arusha,Dukambili,36.50134899,-3.410747505,1295.5,DukambiliArusha
Arusha,Dum,35.61071665,-3.62121565,1624.0,DumArusha
Arusha,Elerai,36.862675955,-3.1254981649999998,1465.5,EleraiArusha
Arusha,Elwahi,37.12321513333333,-2.855675096666667,1630.0,ElwahiArusha
Arusha,Elwan,36.68260445,-3.49266467,1206.0,ElwanArusha
Arusha,Elwayn,36.68154102,-3.4936589400000004,1207.0,ElwaynArusha
Arusha,Emanyata,36.5261929375,-3.2995443825,1665.0,EmanyataArusha
Arusha,Emarti,35.49675709,-2.23122984,2014.0,EmartiArusha
Arusha,Embalwa,36.693995075000004,-3.036284335,1403.0,EmbalwaArusha
Arusha,Embaruway,35.26505992857143,-3.2620726200000005,1685.7142857142858,EmbaruwayArusha
Arusha,Embong'Iti,36.884405965,-2.9737851600000003,1180.5,Embong'ItiArusha
Arusha,Embopong'I,36.541431079999995,-2.49398634,1730.5,Embopong'IArusha
Arusha,Emogoro,36.3609649,-3.33873986,1421.0,EmogoroArusha
Arusha,Emugurunanyoki,36.35324882,-3.34241323,1437.0,EmugurunanyokiArusha
Arusha,Emurua,36.44832139,-3.08093797,1113.0,EmuruaArusha
Arusha,Emututoto,36.37665033,-2.35706977,1259.0,EmututotoArusha
Arusha,Enaboishu,36.70216692,-3.347510943333333,1476.0,EnaboishuArusha
Arusha,Endalah,35.72860929,-3.4688076,1326.5,EndalahArusha
Arusha,Endallah,35.72974488,-3.46181139,1342.0,EndallahArusha
Arusha,Endamarariek,35.65367106,-3.51292265,1455.0,EndamarariekArusha
Arusha,Endeves,36.65882105125,-3.5681270887500003,1064.375,EndevesArusha
Arusha,Endonyowas,35.697589730000004,-3.0526492149999997,2560.0,EndonyowasArusha
Arusha,Engarasero,35.875562625,-2.6054912349999997,679.0,EngaraseroArusha
Arusha,Engaresero,35.88554225,-2.63163848,695.0,EngareseroArusha
Arusha,Engasiti,35.96345539,-3.66499193,987.0,EngasitiArusha
Arusha,Engawale,36.58921539,-3.24989696,1737.0,EngawaleArusha
Arusha,Engedeko,36.727650647999994,-3.1538075660000002,2033.2,EngedekoArusha
Arusha,Engerin,36.566007905000006,-2.493848165,1663.0,EngerinArusha
Arusha,Engigiri,36.20615735,-3.39242769,1373.0,EngigiriArusha
Arusha,Engikaleti,36.740539198421054,-3.324764651578947,1693.0,EngikaletiArusha
Arusha,Engloriti,36.18934024,-3.42239326,1289.0,EngloritiArusha
Arusha,Engomei,35.84325030333333,-2.8427652066666664,2323.6666666666665,EngomeiArusha
Arusha,Engorika,36.656655205,-3.2300827649999997,2148.5,EngorikaArusha
Arusha,Engorora Kati,36.549203915,-3.37035624,1382.5,Engorora KatiArusha
Arusha,Enguruman,35.51016386,-2.96789459,1324.0,EngurumanArusha
Arusha,Engusero,36.33457902,-2.98632961,990.0,EnguseroArusha
Arusha,Enguserosambu,35.6648962,-1.97992462,2233.5,EnguserosambuArusha
Arusha,Engutoto,36.445082854999995,-2.624315365,1648.5,EngutotoArusha
Arusha,Engutukoit,36.74369885,-3.083144136,1431.0,EngutukoitArusha
Arusha,Engutukuorugos,36.454071305,-2.519443755,1718.0,EngutukuorugosArusha
Arusha,Enjolo Ondare,36.509144973999994,-3.2936625059999995,1728.2,Enjolo OndareArusha
Arusha,Erangau,37.06489092,-2.92533373,1733.0,ErangauArusha
Arusha,Esmiti,35.99938203,-3.48615125,1043.0,EsmitiArusha
Arusha,Eunoto,36.533098695,-3.29295275,1705.0,EunotoArusha
Arusha,Ewerendeke,36.77862138,-2.55618033,1302.0,EwerendekeArusha
Arusha,Eworendeke,36.76171047222223,-2.5676645677777774,1341.5555555555557,EworendekeArusha
Arusha,Fetinalii,36.6358451075,-3.206157735,1830.5,FetinaliiArusha
Arusha,Fithal,35.859060265,-3.25828182,1623.5,FithalArusha
Arusha,G,35.34982133,-3.54410547,1064.0,GArusha
Arusha,Geer,35.5985086,-3.6340279,1689.0,GeerArusha
Arusha,Genda,35.796441716000004,-3.2833574979999995,1639.8,GendaArusha
Arusha,Geriani,35.09556095,-3.36154715,1608.0,GerianiArusha
Arusha,Gidabash,35.29921917,-3.5272609299999997,1038.0,GidabashArusha
Arusha,Gidaburjek,35.30877299,-3.50653461,1036.0,GidaburjekArusha
Arusha,Gidbash,35.29898732,-3.52644973,1042.0,GidbashArusha
Arusha,Gidibashi,35.3029403,-3.52256131,1039.0,GidibashiArusha
Arusha,Gitmaja,35.589736200000004,-3.4338887099999997,1387.0,GitmajaArusha
Arusha,Gwandumehi,35.70173906,-3.38593155,1484.0,GwandumehiArusha
Arusha,Gwandumei,35.71183211,-3.38874279,1490.0,GwandumeiArusha
Arusha,Gwasei,36.74984305,-3.34906702,1529.0,GwaseiArusha
Arusha,Halei,35.64655137,-3.34005836,1497.0,HaleiArusha
Arusha,Halet,35.636601815,-3.34650506,1536.0,HaletArusha
Arusha,Hambar,35.698500265,-3.51907736,1419.0,HambarArusha
Arusha,Hansi,35.88096345,-3.2284528,1704.0,HansiArusha
Arusha,Haria B,35.74216372,-3.33420597,1505.0,Haria BArusha
Arusha,Hathins,35.87747054,-3.23958133,1714.0,HathinsArusha
Arusha,Hhalki,35.82647009,-3.30790178,1380.0,HhalkiArusha
Arusha,Hharki,35.80973101,-3.28655328,1528.0,HharkiArusha
Arusha,Hospital,36.995158197500004,-3.3277038475,1030.75,HospitalArusha
Arusha,Huduma,36.66123396588235,-3.3655969458823534,1348.6470588235295,HudumaArusha
Arusha,Hyhh,36.01293837,-3.00261659,814.0,HyhhArusha
Arusha,Idulele,36.59446587666667,-3.2339321233333336,1814.6666666666667,IduleleArusha
Arusha,Ieletulele,36.690441229,-3.3273379479999994,1575.5,IeletuleleArusha
Arusha,Ifuriny,36.77163994,-3.3497722866666666,1447.3333333333333,IfurinyArusha
Arusha,Ikenywa,36.68173762235294,-3.3411564564705887,1505.1764705882354,IkenywaArusha
Arusha,Ikreepus,35.68896081,-3.09093416,2401.0,IkreepusArusha
Arusha,Ilboru,36.687935190000005,-3.3495910275,1465.75,IlboruArusha
Arusha,Ilchang'Itsapu,36.20072648,-2.581027745,1150.5,Ilchang'ItsapuArusha
Arusha,Ildoinyio,36.97705811,-2.77630895,1135.5,IldoinyioArusha
Arusha,Ileza,36.68507554,-3.31737587,1615.0,IlezaArusha
Arusha,Ilimadu,36.708114875,-3.33146078,1747.5,IlimaduArusha
Arusha,Ilimelili,36.704629912499996,-3.31227049,1816.5,IlimeliliArusha
Arusha,Ilimitongo,36.654203732499994,-3.5620837962499996,1081.375,IlimitongoArusha
Arusha,Ilimuri,35.44627732,-3.21274492,2491.0,IlimuriArusha
Arusha,Ilkiroriti,36.72406477,-3.347717505,1605.0,IlkiroritiArusha
Arusha,Ilkirumuni,36.91143093636364,-3.1719836881818186,1453.5454545454545,IlkirumuniArusha
Arusha,Ilkisongo Chini,36.694620572,-3.3097980700000003,1690.0,Ilkisongo ChiniArusha
Arusha,Ilkisongo Juu,36.70021551,-3.3047913199999996,1823.0,Ilkisongo JuuArusha
Arusha,Imbibia Kati,36.566749380000005,-3.2638477000000004,1797.5,Imbibia KatiArusha
Arusha,Imbopong,36.44094093,-3.13120529,1149.0,ImbopongArusha
Arusha,Imisigiyo,37.24290302,-2.84447325,1605.6666666666667,ImisigiyoArusha
Arusha,Imurutot,37.369302733333335,-2.876996136666667,1837.6666666666667,ImurutotArusha
Arusha,Indiani,35.27817233,-3.18815783,1962.0,IndianiArusha
Arusha,Ing'Oswani,36.52795164666667,-2.8400008333333333,1607.0,Ing'OswaniArusha
Arusha,Ingerin,36.585825656,-2.493132,1615.0,IngerinArusha
Arusha,Inginye,36.23392562666666,-2.9333351433333337,1959.3333333333333,InginyeArusha
Arusha,Ingolienito,36.4807924,-3.36197835,1381.0,IngolienitoArusha
Arusha,Ingutot,36.29177455000001,-2.986101006666667,1061.0,IngutotArusha
Arusha,Ingutoto,35.40799795,-3.21257259,2357.0,IngutotoArusha
Arusha,Insi,35.5933726,-3.382730973333333,1456.0,InsiArusha
Arusha,Inyuata,36.66825145599999,-3.353149088,1424.4,InyuataArusha
Arusha,Irkeepus,35.68979185,-3.0899931,2406.5,IrkeepusArusha
Arusha,Irkisale,36.41962339,-3.75992869,1472.0,IrkisaleArusha
Arusha,Iting'Are,36.96446208,-3.21718599,1348.0,Iting'AreArusha
Arusha,Iyani,36.84859371076924,-3.144526509230769,1440.8461538461538,IyaniArusha
Arusha,Jamhuri,36.68824574,-3.38078323,1346.0,JamhuriArusha
Arusha,Jamusi,35.687599555,-2.294008925,1252.0,JamusiArusha
Arusha,Jamusi Ng'Ambo,35.68498603,-2.29260702,1256.0,Jamusi Ng'AmboArusha
Arusha,Jangwale,36.7778106,-3.15351348,1944.0,JangwaleArusha
Arusha,Jangwani,35.85502667,-3.3896459180000003,954.8,JangwaniArusha
Arusha,Jema,35.881829996,-2.1405927240000002,1197.0,JemaArusha
Arusha,Jengemwanama,36.71094552,-3.38766013,1334.0,JengemwanamaArusha
Arusha,Juu,35.806881473000004,-3.2635655,1615.6,JuuArusha
Arusha,K/Center,36.92123766428572,-3.3577271835714284,1231.5,K/CenterArusha
Arusha,Kaepu,35.45579126,-3.22653601,2450.0,KaepuArusha
Arusha,Kaibuku,36.646883384285715,-3.3027387671428565,1570.857142857143,KaibukuArusha
Arusha,Kainam,35.683584405,-3.456001563333334,1573.0,KainamArusha
Arusha,Kalalanic,36.82401269,-3.36949326,1190.0,KalalanicArusha
Arusha,Kalimaji,36.718790205000005,-3.4536362840000003,1212.1,KalimajiArusha
Arusha,Kalimaji Kati,36.73035028,-3.43113663,1241.0,Kalimaji KatiArusha
Arusha,Kaloleni Mashariki,36.68998419,-3.36285021,1410.0,Kaloleni MasharikiArusha
Arusha,Kaloleni Mita 200,36.69003706,-3.3582865375,1427.75,Kaloleni Mita 200Arusha
Arusha,Kambarage,36.71650559,-3.40205382,1309.0,KambarageArusha
Arusha,Kambi Ya Fisi,36.67433767,-3.36809906,1394.0,Kambi Ya FisiArusha
Arusha,Kambi Ya Mkaa,36.8686070676923,-3.3909763746153847,1043.6153846153845,Kambi Ya MkaaArusha
Arusha,Kambi Ya Simba,35.43158843,-3.48730058,1130.0,Kambi Ya SimbaArusha
Arusha,Kambi Ya Tanga Juu,36.91198931,-3.547789,918.0,Kambi Ya Tanga JuuArusha
Arusha,Kandaskilieti,36.6541694375,-3.2211594325,2069.5,KandaskilietiArusha
Arusha,Kanisani,36.67614729909091,-3.264215839090909,1244.1818181818182,KanisaniArusha
Arusha,Karafia,36.800424982500004,-3.16932448,1767.75,KarafiaArusha
Arusha,Karatini,36.71150429,-3.3224032,1887.0,KaratiniArusha
Arusha,Karimaji,36.7176581625,-3.44321301,1231.0,KarimajiArusha
Arusha,Kaskazini,35.6601978425,-2.6798404375,1850.75,KaskaziniArusha
Arusha,Katani,37.11087388,-2.860896163333333,1655.3333333333333,KataniArusha
Arusha,Kati,36.35582482611112,-3.331313503518519,1370.1851851851852,KatiArusha
Arusha,Kaveshi,36.966028144285715,-3.247787371428571,1313.857142857143,KaveshiArusha
Arusha,Kazamoyo,36.91359225,-3.57168304,922.0,KazamoyoArusha
Arusha,Keidofa,35.49672549,-3.3811027533333333,1606.6666666666667,KeidofaArusha
Arusha,Kereshu,36.79901398333333,-3.3367902133333334,1521.1666666666667,KereshuArusha
Arusha,Kibaoni,36.82690970666667,-3.524640728888889,962.1111111111111,KibaoniArusha
Arusha,Kiboli,36.60112430666667,-3.241352473333334,1787.3333333333333,KiboliArusha
Arusha,Kibori,36.66732392,-3.342159445,1482.6666666666667,KiboriArusha
Arusha,Kigongoni,35.95734315666667,-3.4635966758333336,1018.5833333333334,KigongoniArusha
Arusha,Kijave,36.73910261,-3.3503674,1566.0,KijaveArusha
Arusha,Kijenge Chini,36.70640041,-3.37721807,1360.0,Kijenge ChiniArusha
Arusha,Kijenge Juu,36.70860813,-3.36879551,1424.0,Kijenge JuuArusha
Arusha,Kijijini,35.77344033333333,-2.13045399,1262.6666666666667,KijijiniArusha
Arusha,Kijiweni,37.347201725000005,-2.8665650649999996,1748.5,KijiweniArusha
Arusha,Kikwakwaru,36.695275734999996,-3.3989703650000003,1306.5,KikwakwaruArusha
Arusha,Kilalanic,36.82598359428572,-3.375840245714286,1198.2857142857142,KilalanicArusha
Arusha,Kilima Moja,36.90481061,-3.4214163,1031.0,Kilima MojaArusha
Arusha,Kilimamoto,36.6193579,-3.2698351900000002,1624.5,KilimamotoArusha
Arusha,Kilimani,36.68150944,-3.40753686,1282.0,KilimaniArusha
Arusha,Kilimo,36.64733942,-3.29458643,1584.0,KilimoArusha
Arusha,Kimandafu,36.917614244444444,-3.3830923944444447,1182.7777777777778,KimandafuArusha
Arusha,Kimandolu,36.8382828875,-3.3188502399999997,1528.5,KimandoluArusha
Arusha,Kimeroki,36.72098671571428,-3.3275018199999997,1687.142857142857,KimerokiArusha
Arusha,Kimoli,36.60803605,-3.24181647,1734.0,KimoliArusha
Arusha,Kimosonu,36.86842329235294,-3.1332732947058823,1400.9411764705883,KimosonuArusha
Arusha,Kimundo,36.78185998666667,-3.3482218866666664,1427.6666666666667,KimundoArusha
Arusha,Kimwati,36.51030125666667,-2.43255973,1763.3333333333333,KimwatiArusha
Arusha,Kinehe,35.66301588,-3.37087643,1502.0,KineheArusha
Arusha,King'Una,36.212918342500004,-2.9315997224999997,2028.25,King'UnaArusha
Arusha,Kinihe,35.65822296,-3.341054955,1533.0,KiniheArusha
Arusha,Kirangi,35.766827455,-2.12965646,1266.5,KirangiArusha
Arusha,Kirashi,35.70134796,-2.29661458,1224.0,KirashiArusha
Arusha,Kireeni,36.859812901428576,-3.17809989,1442.4285714285713,KireeniArusha
Arusha,Kirika B,36.65870108,-3.38504519,1333.0,Kirika BArusha
Arusha,Kirima,36.83241431,-3.34721578,1310.0,KirimaArusha
Arusha,Kirurumo,35.84528816,-3.36873416,969.0,KirurumoArusha
Arusha,Kisambare,36.84983935666666,-3.3792650233333332,1150.6666666666667,KisambareArusha
Arusha,Kiseli,35.42390981,-2.66330448,1790.0,KiseliArusha
Arusha,Kiselya,36.746304741,-3.4378126109999996,1247.7,KiselyaArusha
Arusha,Kisiwani,36.82789502,-3.30702383,1604.0,KisiwaniArusha
Arusha,Kisongo,36.78808196166667,-2.5480606433333333,1336.1666666666667,KisongoArusha
Arusha,Kisongo Juu,36.69857523,-3.30654386,1769.0,Kisongo JuuArusha
Arusha,Kisutu,35.85458727,-3.36711033,966.0,KisutuArusha
Arusha,Kitarini,36.463949955000004,-2.6220844899999998,1711.0,KitariniArusha
Arusha,Kitendo,36.6504945875,-3.3099188575,1550.25,KitendoArusha
Arusha,Kitong'Wa,36.69254058,-3.47503858,1225.0,Kitong'WaArusha
Arusha,Kitongojini,36.86282412,-3.50040742,958.0,KitongojiniArusha
Arusha,Kitosokoine,36.5916064,-3.63337152,1167.0,KitosokoineArusha
Arusha,Kituma,35.910820996666665,-3.173823496666667,1789.0,KitumaArusha
Arusha,Kiutu,36.71373485666667,-3.350202035,1536.0,KiutuArusha
Arusha,Kives,36.734282609999994,-3.355152065,1515.5,KivesArusha
Arusha,Kiwabdani,35.67015578,-3.32451076,1542.0,KiwabdaniArusha
Arusha,Kiwandani,35.667695153333334,-3.3265627766666666,1532.0,KiwandaniArusha
Arusha,Kiwanja,35.55653602,-3.35276851,1481.3333333333333,KiwanjaArusha
Arusha,Kiwawa,36.87524247,-3.3440491249999997,1219.5,KiwawaArusha
Arusha,Kolila,37.048725223333335,-3.3444635333333337,982.6666666666666,KolilaArusha
Arusha,Kombo,36.809918280000005,-3.324294545,1619.0,KomboArusha
Arusha,Komoro,36.93165941,-3.55703413,905.0,KomoroArusha
Arusha,Komwex,35.577162015,-3.3826957049999997,1419.5,KomwexArusha
Arusha,Korea,35.85166788,-3.36645411,967.0,KoreaArusha
Arusha,Korona,36.950379585,-3.5298344,912.5,KoronaArusha
Arusha,Korongoni,36.70452005,-3.441992115,1236.0,KorongoniArusha
Arusha,Kroma,35.58214138,-3.38776216,1416.0,KromaArusha
Arusha,Kusini,35.687048749999995,-3.3289609419999997,1513.0,KusiniArusha
Arusha,Kwa Kirenga,36.974504445,-3.2930753675,1170.0,Kwa KirengaArusha
Arusha,Kwa Masika,36.987351645714284,-3.30625861,1097.0,Kwa MasikaArusha
Arusha,Kwa Philipo,36.96820264749999,-3.322373655,1220.75,Kwa PhilipoArusha
Arusha,Kwa Tulele,36.98503417999999,-3.2735254866666668,1190.3333333333333,Kwa TuleleArusha
Arusha,Kwalock,36.881462077142864,-3.1474949071428573,1421.142857142857,KwalockArusha
Arusha,Kwaniche,36.749772568000004,-3.35647309,1469.2,KwanicheArusha
Arusha,Kware,36.661894282000006,-3.3631454560000003,1402.6,KwareArusha
Arusha,Kyamakata,36.85397359,-3.1338869949999997,1419.8333333333333,KyamakataArusha
Arusha,Kyaraa,36.79728151,-3.3552977999999998,1322.0,KyaraaArusha
Arusha,Kyuta,36.82247931571429,-3.3090764242857147,1669.2857142857142,KyutaArusha
Arusha,Laiza,36.734008669999994,-3.41530228,1291.4,LaizaArusha
Arusha,Laizer,36.722412385,-3.3355805700000003,1626.0,LaizerArusha
Arusha,Lamayana,36.60572127,-3.32229166,1396.0,LamayanaArusha
Arusha,Lamuloki,36.83425706,-3.574120315,938.0,LamulokiArusha
Arusha,Langata,36.482266370000005,-2.5388810250000002,1679.5,LangataArusha
Arusha,Langidare,36.7282173,-3.3592021599999997,1513.5,LangidareArusha
Arusha,Larikaria,36.25691633,-2.90160768,2192.0,LarikariaArusha
Arusha,Larkaria,36.255696675,-2.9167501375000002,2134.25,LarkariaArusha
Arusha,Larmaroro,36.433720782,-3.227754772,1942.4,LarmaroroArusha
Arusha,Latimi,35.93486184,-3.33536007,1003.0,LatimiArusha
Arusha,Lebusha,36.69130784666667,-3.343356913333333,1495.0,LebushaArusha
Arusha,Leganga,36.84679101444445,-3.3693761044444437,1180.2222222222222,LegangaArusha
Arusha,Leinevuni,36.6550199,-3.30345373,1581.0,LeinevuniArusha
Arusha,Lekako,36.658323591249996,-3.30306916375,1619.0,LekakoArusha
Arusha,Lelek,36.57470816,-2.63146394,1456.0,LelekArusha
Arusha,Leleki,36.51388923,-2.65649583,1519.0,LelekiArusha
Arusha,Lemanda,36.678936,-3.1533841516666663,1774.3333333333333,LemandaArusha
Arusha,Lemanyata,36.625324260000006,-3.2631582466666664,1650.6666666666667,LemanyataArusha
Arusha,Lembashishi,36.577630235,-3.3019154750000004,1539.5,LembashishiArusha
Arusha,Lemedei,36.780400815,-3.5597557550000003,968.0,LemedeiArusha
Arusha,Lemgulu,36.5616008225,-3.4283941775,1319.25,LemguluArusha
Arusha,Lemioni,36.09974174,-3.56386655,1051.5,LemioniArusha
Arusha,Lendavunye,36.65740287,-3.306827235,1603.5,LendavunyeArusha
Arusha,Lendoiya,36.88850203714286,-3.1975540664285718,1509.5,LendoiyaArusha
Arusha,Lengare,36.818948307142854,-3.174821465714286,1604.857142857143,LengareArusha
Arusha,Lengeni,36.47446679,-3.30949613,1559.0,LengeniArusha
Arusha,Lengine,36.477197045,-3.312506205,1585.0,LengineArusha
Arusha,Lengipima,35.908716007500004,-3.1840013425,1805.75,LengipimaArusha
Arusha,Lengitima,35.904918815,-3.1932707650000003,1761.0,LengitimaArusha
Arusha,Lenjani,36.636099509999994,-3.269504425,1731.0,LenjaniArusha
Arusha,Leparieti,36.650305620000005,-3.32709214,1530.75,LeparietiArusha
Arusha,Leparumet,36.6483334025,-3.3306166925,1528.25,LeparumetArusha
Arusha,Lepayoni,37.36107966,-2.8716433200000004,1803.3333333333333,LepayoniArusha
Arusha,Lepoloseki,36.30130358555556,-2.809170661111111,1202.111111111111,LepolosekiArusha
Arusha,Lepolosi,37.25760387666667,-2.8370445099999997,1498.3333333333333,LepolosiArusha
Arusha,Lerai,36.907405415,-3.354601455,1225.0,LeraiArusha
Arusha,Lerai Kati,36.9126757,-3.3526473,1233.5,Lerai KatiArusha
Arusha,Lerang'Wa,37.210233344,-2.842750563,1633.8,Lerang'WaArusha
Arusha,Leremeta,36.96541312,-2.72271784,1131.5,LeremetaArusha
Arusha,Lesala,36.47485622,-3.30168425,1620.0,LesalaArusha
Arusha,Leshabala,36.69569150666666,-3.34550254,1487.0,LeshabalaArusha
Arusha,Leshabale,36.6991465425,-3.3472687875,1468.75,LeshabaleArusha
Arusha,Leshobale,36.69839609,-3.34886505,1465.0,LeshobaleArusha
Arusha,Lesimanga,36.684428452000006,-3.348507886,1458.8,LesimangaArusha
Arusha,Lesoit,36.72446272,-3.466673683333333,1180.3333333333333,LesoitArusha
Arusha,Lesoiti,36.788786318,-2.581919436,1273.0,LesoitiArusha
Arusha,Letaiyo,36.70206777,-3.47051786,1242.0,LetaiyoArusha
Arusha,Levolos Mita 200,36.68266629,-3.35952195,1429.0,Levolos Mita 200Arusha
Arusha,Likamba,36.554545114999996,-3.33216665,1476.0,LikambaArusha
Arusha,Lobolosi,36.74299691,-3.33344008,1636.0,LobolosiArusha
Arusha,Lobon,36.548914204999996,-3.3216270725,1521.75,LobonArusha
Arusha,Lobora,36.690760499999996,-3.3527124075,1438.5,LoboraArusha
Arusha,Lobulu,36.684181898000006,-3.3252245520000003,1569.8,LobuluArusha
Arusha,Loibangoti,36.66425518666667,-3.3246510700000003,1587.6666666666667,LoibangotiArusha
Arusha,Lolera,36.91382156,-3.21073991,1441.0,LoleraArusha
Arusha,Lolimotonya,36.63195892,-3.25512414,1717.0,LolimotonyaArusha
Arusha,Lolimotonyi,36.63112017,-3.24496629,1736.0,LolimotonyiArusha
Arusha,Loliondo,35.624353956666674,-2.0506799333333334,2161.0,LoliondoArusha
Arusha,Lolkisale A,36.42121872,-3.76660778,1480.0,Lolkisale AArusha
Arusha,Lolkisale B,36.41923519,-3.76135624,1487.0,Lolkisale BArusha
Arusha,Loloboni,36.70039825,-2.63760992,1394.0,LoloboniArusha
Arusha,Loloiboni,36.699875166,-2.6424888600000003,1377.6,LoloiboniArusha
Arusha,Lolomotonyi,36.63062667,-3.24972354,1783.0,LolomotonyiArusha
Arusha,Lolopon,36.51988825666667,-3.3225408566666665,1556.3333333333333,LoloponArusha
Arusha,Lomishila,36.576672656666666,-3.31520228,1532.8333333333333,LomishilaArusha
Arusha,Longdong,36.67596786,-3.4037678,1291.0,LongdongArusha
Arusha,Longido,36.641157254999996,-3.3112126550000003,1519.5,LongidoArusha
Arusha,Longolu,36.674486455,-3.3373033149999998,1505.5,LongoluArusha
Arusha,Longululu,36.52741378214286,-3.396608449285715,1346.357142857143,LongululuArusha
Arusha,Longuluyo,36.533717415,-3.40280212,1338.0,LonguluyoArusha
Arusha,Loolturot,36.202739019999996,-2.840528435,2145.0,LoolturotArusha
Arusha,Loomunyi,35.55021282,-3.05369396,2046.0,LoomunyiArusha
Arusha,Loosikito,36.68497568,-2.76592684,1288.0,LoosikitoArusha
Arusha,Loseiya,36.940894543333336,-3.2367313066666665,1369.6666666666667,LoseiyaArusha
Arusha,Loshuwash,35.417116925,-2.00656418,1938.5,LoshuwashArusha
Arusha,Losilo,36.56611187,-3.28750349,1656.0,LosiloArusha
Arusha,Losingila,36.50569835,-3.39450725,1345.0,LosingilaArusha
Arusha,Losingirani,36.48347446,-3.3969473,1326.0,LosingiraniArusha
Arusha,Losinoni,36.5656465425,-3.2397016525000004,1636.0,LosinoniArusha
Arusha,Losinoni Juu,36.745102165,-3.1415119525,1776.5,Losinoni JuuArusha
Arusha,Losirwa,35.90745618571429,-3.3874443371428566,991.5714285714286,LosirwaArusha
Arusha,Lositeti,36.4692873,-3.3197650000000003,1510.0,LositetiArusha
Arusha,Losrway,36.74362360000001,-3.41198612,1301.0,LosrwayArusha
Arusha,Losuwashi,35.41714744,-2.00724309,1941.0,LosuwashiArusha
Arusha,Lovilikuny,36.54455441,-3.40429121,1366.0,LovilikunyArusha
Arusha,Lovilukuny,36.5399675,-3.406022845,1361.0,LovilukunyArusha
Arusha,Lunesela,36.8105092,-3.44790957,1059.0,LuneselaArusha
Arusha,Luwai,36.77201633000001,-3.1465208783333334,1854.8333333333333,LuwaiArusha
Arusha,Maangalio,36.92112325555556,-3.25768023,1452.111111111111,MaangalioArusha
Arusha,Mabatini,36.951343765000004,-3.522431405,915.5,MabatiniArusha
Arusha,Madukani,36.339356114019616,-2.927969878039217,1422.1078431372548,MadukaniArusha
Arusha,Magadini,36.845383266,-3.385064558,1137.8,MagadiniArusha
Arusha,Magadirisho,36.854853535555556,-3.3611810011111114,1177.7777777777778,MagadirishoArusha
Arusha,Maganyo,35.311157269999995,-3.52469338,1043.3333333333333,MaganyoArusha
Arusha,Magharibi,35.65676157777778,-2.756490784444444,1794.3333333333333,MagharibiArusha
Arusha,Magomeni,35.85575812333334,-3.3825211233333334,957.6666666666666,MagomeniArusha
Arusha,Maifora,35.33220883,-3.50783474,1033.0,MaiforaArusha
Arusha,Maina,36.663796242000004,-3.299144934,1656.4,MainaArusha
Arusha,Mairowa,35.36936827,-1.86754909,1909.0,MairowaArusha
Arusha,Mairowa B,35.367323060000004,-1.86126447,1886.0,Mairowa BArusha
Arusha,Majengo,36.80088706,-3.461977794545454,1064.1818181818182,MajengoArusha
Arusha,Majengo A,35.86288176333333,-3.34213658,970.3333333333334,Majengo AArusha
Arusha,Majengo B,35.86371336,-3.33719174,969.0,Majengo BArusha
Arusha,Majengo C,35.8657745425,-3.3564345849999997,963.75,Majengo CArusha
Arusha,Majengo Chini,36.65805282,-3.37498307,1380.0,Majengo ChiniArusha
Arusha,Majengo D,35.86116443,-3.32166199,980.0,Majengo DArusha
Arusha,Maji Ya Chai,36.90234986,-3.36969747,1197.0,Maji Ya ChaiArusha
Arusha,Maji Ya Chai Kati,36.90829678599999,-3.368351623333333,1213.4,Maji Ya Chai KatiArusha
Arusha,Makaburi Ya Baniani,36.675342586666666,-3.3745854066666663,1373.0,Makaburi Ya BanianiArusha
Arusha,Makanyo,35.30681809,-3.52436682,1040.0,MakanyoArusha
Arusha,Makao Mapya,36.79651786666667,-3.4495995666666666,1078.6666666666667,Makao MapyaArusha
Arusha,Makisoro,36.776416345,-3.388507645,1256.0,MakisoroArusha
Arusha,Makivaru,36.98782754,-3.2545556,1251.0,MakivaruArusha
Arusha,Makiwaru,36.99024308333333,-3.2553863133333336,1257.6666666666667,MakiwaruArusha
Arusha,Makuyuni,36.09808435428572,-3.549970885,1061.5714285714287,MakuyuniArusha
Arusha,Malanja,35.459362945,-3.17225062,2165.0,MalanjaArusha
Arusha,Maleu,36.69526249111111,-3.1569268677777775,1854.0,MaleuArusha
Arusha,Maliyasili,35.67820973,-3.35161279,1495.0,MaliyasiliArusha
Arusha,Maliyasiri,35.670910045,-3.3547485650000004,1506.0,MaliyasiriArusha
Arusha,Maloloi,36.774720496,-3.461683017,1071.7,MaloloiArusha
Arusha,Maloon,35.578274205,-2.246298905,1823.5,MaloonArusha
Arusha,Malula Mjini,37.015310660000004,-3.3740254299999997,937.0,Malula MjiniArusha
Arusha,Mamuna,36.87511422,-3.3162077733333333,1363.1666666666667,MamunaArusha
Arusha,Manang,35.706564207999996,-2.484666942,1140.6,ManangArusha
Arusha,Mangashini,37.02730473,-3.318914855,1062.0,MangashiniArusha
Arusha,Mangisa,35.627247694999994,-3.561112545,1507.0,MangisaArusha
Arusha,Mangula,36.33385703571428,-2.85847543,1168.142857142857,MangulaArusha
Arusha,Manguva,36.798167160000006,-3.32753436,1660.0,ManguvaArusha
Arusha,Manguwa,36.79836516,-3.32612987,1654.0,ManguwaArusha
Arusha,Mangwa,36.714097385,-3.3278226125,1826.75,MangwaArusha
Arusha,Manusai,35.74184848666667,-3.454554163333333,1290.0,ManusaiArusha
Arusha,Manyara,36.617702855,-3.32291109,1460.5,ManyaraArusha
Arusha,Manyata,36.99537731,-3.30712579,1072.0,ManyataArusha
Arusha,Manyati,36.99697793,-3.30489439,1088.0,ManyatiArusha
Arusha,Manyile,36.775468090000004,-3.370093985,1319.5,ManyileArusha
Arusha,Mapera,36.7366309,-3.36530626,1421.5,MaperaArusha
Arusha,Marera,35.71706820333333,-3.30217482,1544.3333333333333,MareraArusha
Arusha,Marere,35.723470657499995,-3.304942165,1553.5,MarereArusha
Arusha,Mareu Kati,36.971478788333336,-3.314398771666667,1188.8333333333333,Mareu KatiArusha
Arusha,Marikanda,36.690246965,-3.347449505,1460.5,MarikandaArusha
Arusha,Maring'A,36.782069562222226,-3.357490974444444,1394.888888888889,Maring'AArusha
Arusha,Marongoroni,35.69371559,-2.29296963,1237.0,MarongoroniArusha
Arusha,Marti,35.49655536,-2.23100665,2016.0,MartiArusha
Arusha,Marurani Juu,36.810984409259255,-3.4794409264814816,1008.3148148148148,Marurani JuuArusha
Arusha,Marurani Kati,36.82371761372882,-3.492056950847458,977.8644067796611,Marurani KatiArusha
Arusha,Marurani Kusini,36.847929278,-3.512081868,958.3333333333334,Marurani KusiniArusha
Arusha,Masabeda,35.708284095,-3.4573445525000004,1401.5,MasabedaArusha
Arusha,Masaga,36.6825808075,-3.3055207199999996,1676.5,MasagaArusha
Arusha,Masaini,36.779160874285715,-3.534256731428571,988.7142857142857,MasainiArusha
Arusha,Masale,36.896609415,-3.37727925,1167.0,MasaleArusha
Arusha,Mashono Kaskazini,36.741814704999996,-3.391981545,1343.5,Mashono KaskaziniArusha
Arusha,Masiel,35.31199794,-3.51884295,1042.0,MasielArusha
Arusha,Masihi,35.87943722,-2.9426578,2294.0,MasihiArusha
Arusha,Matani,36.80280298,-2.58697899,1241.0,MataniArusha
Arusha,Matasa,36.56030148,-3.38382616,1344.0,MatasaArusha
Arusha,Matasy,36.56853821333333,-3.3787042799999996,1369.6666666666667,MatasyArusha
Arusha,Matene,36.79301810000001,-2.56252446,1300.0,MateneArusha
Arusha,Matiani,36.82019807571429,-2.5962683485714284,1241.7142857142858,MatianiArusha
Arusha,Matini,36.64164776647059,-3.2619425164705875,1774.6470588235295,MatiniArusha
Arusha,Maurani,36.65724450285715,-3.1503082685714285,1699.857142857143,MauraniArusha
Arusha,Mavinuni,36.790877287777775,-3.3620297700000004,1318.5555555555557,MavinuniArusha
Arusha,Maziwa,36.85384822,-3.4549785533333335,1008.0,MaziwaArusha
Arusha,Mbaaseny,36.9482847475,-3.2502727824999997,1338.0,MbaasenyArusha
Arusha,Mbasha,35.5773347,-2.11853216,1963.0,MbashaArusha
Arusha,Mbeshere,36.70797002,-3.38434205,1360.0,MbeshereArusha
Arusha,Mbolele,36.80318675,-3.31351839,1738.0,MboleleArusha
Arusha,Mbonde Lafaru,35.87873549,-3.2227385,1769.0,Mbonde LafaruArusha
Arusha,Mbugani,36.67838714,-3.38327643,1342.0,MbuganiArusha
Arusha,Mbukala,36.588140245,-3.272884745,1610.5,MbukalaArusha
Arusha,Mbukeni,35.506931088,-2.319098582,1860.4,MbukeniArusha
Arusha,Mbuni,36.73346704,-3.4549796,1215.0,MbuniArusha
Arusha,Mburyashi,36.91713707,-3.3211589700000004,1296.0,MburyashiArusha
Arusha,Mbuyuni,35.3732236425,-3.528409735,1083.0,MbuyuniArusha
Arusha,Mebaku,36.6567635825,-3.3341408550000002,1535.25,MebakuArusha
Arusha,Meduti,36.68431136,-3.29035932,1779.0,MedutiArusha
Arusha,Mefurda,35.624071380000004,-3.3594076499999996,1521.0,MefurdaArusha
Arusha,Melebuki,36.657218432,-3.3242100199999998,1557.8,MelebukiArusha
Arusha,Mende,35.624920620000005,-3.399765606666666,1441.1666666666667,MendeArusha
Arusha,Meshili,35.505801548,-2.982881242,1345.0,MeshiliArusha
Arusha,Metto,36.82445420166667,-3.3262386599999996,1475.3333333333333,MettoArusha
Arusha,Mfulony,36.770750315,-3.3330154199999997,1565.0,MfulonyArusha
Arusha,Mgholo,35.752223358,-2.138197874,1294.6,MgholoArusha
Arusha,Mguu Wa Zuberi,36.25293873,-3.39433837,1489.0,Mguu Wa ZuberiArusha
Arusha,Miembeni,36.88191796,-3.52201154,939.0,MiembeniArusha
Arusha,Migombani Chini,35.85782070000001,-3.36156571,960.0,Migombani ChiniArusha
Arusha,Migombani Juu,35.845042566000004,-3.3406201200000005,1034.0,Migombani JuuArusha
Arusha,Migombani Kati,35.85108262,-3.35913949,970.0,Migombani KatiArusha
Arusha,Migungani,35.33584213,-3.37389605,1073.0,MigunganiArusha
Arusha,Migungani A,35.873013525000005,-3.3770702850000003,964.5,Migungani AArusha
Arusha,Mijuti,35.69603349,-2.16171692,1340.0,MijutiArusha
Arusha,Milongoine,36.60058454,-3.41567525,1370.0,MilongoineArusha
Arusha,Mishiri,35.57339532,-2.13376229,1953.0,MishiriArusha
Arusha,Misigyo,35.371431055,-3.20334886,2309.5,MisigyoArusha
Arusha,Mitaloni,36.664423155,-3.3063629050000003,1630.0,MitaloniArusha
Arusha,Mjini,36.94057256642857,-3.382347446428571,1091.7857142857142,MjiniArusha
Arusha,Mjini Kati,36.68571714,-3.37002748,1393.0,Mjini KatiArusha
Arusha,Mkao,37.18073129625,-2.83699638375,1617.25,MkaoArusha
Arusha,Mkaoo,35.995688353333335,-2.9959065133333334,840.0,MkaooArusha
Arusha,Mkulima,37.326421872500006,-2.8638583525,1685.5,MkulimaArusha
Arusha,Mkuru,36.79772150636364,-3.119894907272727,1534.090909090909,MkuruArusha
Arusha,Mlangarini,36.607845520000005,-3.3127686749999996,1474.8333333333333,MlangariniArusha
Arusha,Mlangarini Kati,36.78777319352941,-3.4405320588235297,1095.8235294117646,Mlangarini KatiArusha
Arusha,Mlimani,36.81980474888889,-3.374412511851853,1177.6296296296296,MlimaniArusha
Arusha,Mlimani Farm,36.580063886666665,-3.4341017566666667,1348.3333333333333,Mlimani FarmArusha
Arusha,Mlimani Park,36.60182609333334,-3.113860385,1397.8333333333333,Mlimani ParkArusha
Arusha,Mlimini,36.932262019999996,-3.367887075,1192.0,MliminiArusha
Arusha,Mlombeni,36.95021045,-3.24404579,1326.0,MlombeniArusha
Arusha,Moikani,36.67736480833333,-3.3518057199999998,1437.3333333333333,MoikaniArusha
Arusha,Moilo,36.64436515666667,-3.3083177233333334,1546.6666666666667,MoiloArusha
Arusha,Moivaro,36.76191199607143,-3.385723528928571,1285.9285714285713,MoivaroArusha
Arusha,Moklani,35.42324003,-3.22869617,2509.0,MoklaniArusha
Arusha,Momela,36.862546938461534,-3.216043009230769,1519.3846153846155,MomelaArusha
Arusha,Mondoros,35.48647774,-1.89093952,2016.0,MondorosArusha
Arusha,Moniki,35.891810881999994,-2.4941202660000004,624.8,MonikiArusha
Arusha,Mooton,36.169961365999995,-2.86950268,1867.4,MootonArusha
Arusha,Mousuyani,36.1801454,-3.39400173,1345.0,MousuyaniArusha
Arusha,Mpakani,36.6613391675,-3.2876078950000003,1671.75,MpakaniArusha
Arusha,Mpomeni,35.368158230000006,-3.5411555850000003,1088.0,MpomeniArusha
Arusha,Mrangarini,35.33796284,-3.51047009,1036.0,MrangariniArusha
Arusha,Mringa Msingi,36.6388074125,-3.32673319,1472.25,Mringa MsingiArusha
Arusha,Mringa Sekondari,36.629676843571424,-3.3226946807142856,1473.4285714285713,Mringa SekondariArusha
Arusha,Msamanene,36.90790628,-3.31582967,1322.0,MsamaneneArusha
Arusha,Msamaneni,36.89920288333333,-3.3183567899999997,1320.0,MsamaneniArusha
Arusha,Mseseweni,36.905998520000004,-3.32971376,1300.0,MseseweniArusha
Arusha,Mshaloni,37.13798194666666,-2.8513222333333332,1702.6666666666667,MshaloniArusha
Arusha,Msumbiji,36.84235978842106,-3.491794225789473,970.6315789473684,MsumbijiArusha
Arusha,Mswakini,35.318126315,-3.50221392,1028.0,MswakiniArusha
Arusha,Mswakini Kati,36.01125274,-3.63262125,1028.0,Mswakini KatiArusha
Arusha,Mtaa Wa Darajani,36.67346831,-3.3714325,1391.0,Mtaa Wa DarajaniArusha
Arusha,Mtaawasaba,36.78043439666667,-2.5477234233333337,1318.6666666666667,MtaawasabaArusha
Arusha,Mteriani,36.68512325,-3.28769142,1804.0,MterianiArusha
Arusha,Mti Mmoja,36.31556321,-3.41055475,1427.0,Mti MmojaArusha
Arusha,Mtongwaa,36.69667679,-3.47315327,1229.0,MtongwaaArusha
Arusha,Mtoni,36.85933334846154,-3.4285312361538463,1119.0,MtoniArusha
Arusha,Mtoni Kati,36.72084069,-3.41729168,1274.0,Mtoni KatiArusha
Arusha,Mula,36.63259030666667,-3.296243694444445,1439.0,MulaArusha
Arusha,Munga,36.69233104,-3.2965288166666666,1739.6666666666667,MungaArusha
Arusha,Munge,35.70533967857143,-3.021380648571429,2616.1428571428573,MungeArusha
Arusha,Mungere,35.89218572,-3.31199538,985.5,MungereArusha
Arusha,Muraiweni,36.768396919999994,-3.3657382133333336,1370.3333333333333,MuraiweniArusha
Arusha,Musa,36.47945484,-3.42681892,1274.0,MusaArusha
Arusha,Mushorijogu,35.29873711,-3.33064209,1087.0,MushorijoguArusha
Arusha,Mushrijog,35.28731541,-3.33174505,1073.0,MushrijogArusha
Arusha,Mutishu,36.675976256666665,-3.3318829366666662,1535.0,MutishuArusha
Arusha,Muungano,36.733671718000004,-3.469175474,1171.4,MuunganoArusha
Arusha,Mwakeni,36.85201046,-3.1814560800000002,1460.5,MwakeniArusha
Arusha,Mwanama,36.71033722,-3.3840235749999996,1356.5,MwanamaArusha
Arusha,Mwandeti,36.8386595125,-3.5602139025,936.75,MwandetiArusha
Arusha,Mwaseny,36.83730026,-3.31203866,1590.0,MwasenyArusha
Arusha,Mwembeni,35.674709765,-3.254012605,997.0,MwembeniArusha
Arusha,Mwenge,36.67383618,-3.2823940599999997,1820.0,MwengeArusha
Arusha,Naamalasi,36.28338747,-3.02943445,943.0,NaamalasiArusha
Arusha,Nadoosoito,36.392112784999995,-3.416669925,1332.0,NadoosoitoArusha
Arusha,Nagilongos,37.38635136,-2.8840359,1889.0,NagilongosArusha
Arusha,Naidikidiko,35.362616915000004,-1.9582473,2004.5,NaidikidikoArusha
Arusha,Naidikodiko,35.36893191,-1.95778896,1973.0,NaidikodikoArusha
Arusha,Naiti,36.17949636,-3.50432074,1208.0,NaitiArusha
Arusha,Nakro,35.68726314,-2.94543181,2291.0,NakroArusha
Arusha,Nambamoja,36.935448635,-2.9682831050000003,1208.5,NambamojaArusha
Arusha,Nambele,36.719438528,-3.35802852,1474.0,NambeleArusha
Arusha,Nanja,36.2951868975,-3.4004885600000003,1423.75,NanjaArusha
Arusha,Napoko,36.88560716857143,-3.330534751428572,1309.7142857142858,NapokoArusha
Arusha,Napopo,36.89235672,-3.33620264,1290.0,NapopoArusha
Arusha,Nardoosoito,36.38962299,-3.41693948,1322.0,NardoosoitoArusha
Arusha,Naromolu,36.52548898714286,-3.360202097142857,1428.142857142857,NaromoluArusha
Arusha,Narpi,36.47999478,-2.4877086866666667,1744.0,NarpiArusha
Arusha,Natema,36.675908836,-3.325859104,1584.4,NatemaArusha
Arusha,Naureni,36.713987083750006,-3.3563446812499995,1471.875,NaureniArusha
Arusha,Nazareti,36.919459525,-3.462390595,979.75,NazaretiArusha
Arusha,Ndaleta,36.260967449999995,-2.881950525,1928.5,NdaletaArusha
Arusha,Ndepesi,36.7140610875,-2.62978853,1340.75,NdepesiArusha
Arusha,Ndeves,36.72247531,-2.63182889,1320.0,NdevesArusha
Arusha,Ndikana,36.68382424,-3.31692565,594.0,NdikanaArusha
Arusha,Ndila,36.710710915,-2.6529279050000003,1377.0,NdilaArusha
Arusha,Ndingika,36.19572589,-2.61350568,1237.0,NdingikaArusha
Arusha,Ndinyika,36.190370279999996,-2.619814645,1271.5,NdinyikaArusha
Arusha,Ndoivo,36.68809411,-3.355785815,1440.5,NdoivoArusha
Arusha,Ndoombo Kati,36.77562774,-3.3311460200000003,1598.0,Ndoombo KatiArusha
Arusha,Ndoombo Mlimani,36.77488787,-3.325229475,1702.0,Ndoombo MlimaniArusha
Arusha,Ndorosi,36.65482462,-3.3456548450000003,1447.5,NdorosiArusha
Arusha,Ndrumanga,36.96628336,-3.365911955,1133.0,NdrumangaArusha
Arusha,Ndrumangeni,37.00880145857143,-3.36326696,1003.8571428571429,NdrumangeniArusha
Arusha,Ndukenyi,36.74799143,-3.3293716499999997,1659.0,NdukenyiArusha
Arusha,Ndulele,36.68510312777778,-3.3515142644444444,1459.2222222222222,NduleleArusha
Arusha,Nduruma Kati,36.792427430000004,-3.473117225,1039.25,Nduruma KatiArusha
Arusha,Nduruma Madukani,36.796231304,-3.488910506,985.6,Nduruma MadukaniArusha
Arusha,Nengloriti,36.40906826,-3.23943896,1915.0,NengloritiArusha
Arusha,Ng'Ambo,35.56498298,-3.3502697999999995,1483.0,Ng'AmboArusha
Arusha,Ng'Ong'Oi,36.111926045000004,-2.661225955,1885.0,Ng'Ong'OiArusha
Arusha,Ngaluma,36.625923472222226,-3.22317128,1843.6666666666667,NgalumaArusha
Arusha,Ngaramtoni,36.63953002333333,-3.3154533577777783,1514.3333333333333,NgaramtoniArusha
Arusha,Ngarasero,36.852302505,-3.3750075099999997,1155.25,NgaraseroArusha
Arusha,Ngejisosia Kati,37.024949488,-3.30638769,1101.8,Ngejisosia KatiArusha
Arusha,Ngepesi,36.70647792,-2.63264139,1356.0,NgepesiArusha
Arusha,Ngido,36.66246288,-3.34397368,1468.0,NgidoArusha
Arusha,Ngidoti,36.658507490000005,-3.3468661133333337,1455.0,NgidotiArusha
Arusha,Ngidutu,36.66150318333333,-3.3414594866666665,1493.0,NgidutuArusha
Arusha,Ngobob,36.5671695,-3.37219298,1359.0,NgobobArusha
Arusha,Ngoile,35.480578873333336,-3.0398024533333334,1349.0,NgoileArusha
Arusha,Ngoilenya,36.720943948000006,-3.3497904999999997,1541.8,NgoilenyaArusha
Arusha,Ngokumeni,36.46877563,-3.4502317,1242.0,NgokumeniArusha
Arusha,Ngorbob,36.572452104999996,-3.372798555,1366.0,NgorbobArusha
Arusha,Ngorika,36.73971826,-3.2712361233333334,1775.0,NgorikaArusha
Arusha,Ngosabaya,36.94010055,-3.346575,1320.0,NgosabayaArusha
Arusha,Ngosusu,35.32668454,-1.85723311,1884.0,NgosusuArusha
Arusha,Ngoswak,36.52365561,-2.51260847,1676.6666666666667,NgoswakArusha
Arusha,Ngovuvulana,36.54075791,-3.30225576,1639.0,NgovuvulanaArusha
Arusha,Nguikaa,36.73280889,-3.32830271,1697.0,NguikaaArusha
Arusha,Nguru Mausi,36.75152525,-3.390916925,1315.0,Nguru MausiArusha
Arusha,Nguru Meusi,36.75496846,-3.390347075,1308.5,Nguru MeusiArusha
Arusha,Nguruma Kati,36.77247366666666,-3.3660652966666667,1335.0,Nguruma KatiArusha
Arusha,Nguruvani,36.57289851,-3.40170467,1368.0,NguruvaniArusha
Arusha,Nguryashi,36.911520205,-3.313599285,1330.0,NguryashiArusha
Arusha,Nguuni,36.90279473,-3.39234789,1147.0,NguuniArusha
Arusha,Ngwarwa,35.66272783,-2.05646747,2197.0,NgwarwaArusha
Arusha,Ngwasei,36.74684545,-3.3507397450000003,1547.5,NgwaseiArusha
Arusha,Ngweamu,36.65331907,-3.3490137850000004,1438.0,NgweamuArusha
Arusha,Ngwramu,36.6514380875,-3.34408262,1441.5,NgwramuArusha
Arusha,Njaro,36.202593056666664,-3.471846473333333,1361.3333333333333,NjaroArusha
Arusha,Njoro,36.39608364642857,-3.317628951428571,1478.9285714285713,NjoroArusha
Arusha,Njoroi,35.441544065,-1.856001295,1988.0,NjoroiArusha
Arusha,Nkoakirua,36.84520465636364,-3.33739424,1301.7272727272727,NkoakiruaArusha
Arusha,Nkoanasari,36.82632887,-3.3175932999999995,1580.0,NkoanasariArusha
Arusha,Nkoanekoli,36.86698409,-3.3311486724999995,1307.375,NkoanekoliArusha
Arusha,Nkoangiroyi,36.85656910166667,-3.33332624,1326.6666666666667,NkoangiroyiArusha
Arusha,Nkoatila,36.831991036666665,-3.320413456666667,1513.3333333333333,NkoatilaArusha
Arusha,Nkoatilya,36.829407333333336,-3.3206282233333333,1510.6666666666667,NkoatilyaArusha
Arusha,Nkomalai,36.77511076142857,-3.3454512428571435,1480.5714285714287,NkomalaiArusha
Arusha,Nkuanasari,36.82699011,-3.3171382966666667,1576.6666666666667,NkuanasariArusha
Arusha,Nkuaroiya,36.79820215,-3.32278024,1674.0,NkuaroiyaArusha
Arusha,Nkuasakuya,36.81607052,-3.31554184,1638.0,NkuasakuyaArusha
Arusha,Nkuatilya,36.83063715,-3.313907445,1577.5,NkuatilyaArusha
Arusha,Nkura,36.8119061,-3.35455594,1281.0,NkuraArusha
Arusha,Nkure,36.83973833000001,-3.327666166666666,1403.7777777777778,NkureArusha
Arusha,Nkuuny,36.83887524666667,-3.1547760220000005,1471.3333333333333,NkuunyArusha
Arusha,Nkwamangasha,36.96037794,-3.37988753,1045.0,NkwamangashaArusha
Arusha,Nkwasabaya,36.94072243166667,-3.35369102,1233.0,NkwasabayaArusha
Arusha,Nkwasakiri,36.83429757,-3.34397805,1300.0,NkwasakiriArusha
Arusha,Nkwerari,36.82246541,-3.321031275,1638.5,NkwerariArusha
Arusha,Nmc,35.68424057,-3.33778793,1506.0,NmcArusha
Arusha,Nnkoavele,36.76069676,-3.33062233,1653.0,NnkoaveleArusha
Arusha,Noseiya,36.932282305,-3.228510448333333,1394.3333333333333,NoseiyaArusha
Arusha,Nosikito,36.225179444999995,-3.3537136849999998,1502.0,NosikitoArusha
Arusha,Nrangareni,35.33996054,-3.50827843,1031.0,NrangareniArusha
Arusha,Nshing'A,36.798706445,-3.32299731,1681.5,Nshing'AArusha
Arusha,Ntuwe,36.94520773384615,-3.3029281323076924,1224.076923076923,NtuweArusha
Arusha,Nyamagana,36.7859873975,-3.5817233699999997,960.25,NyamaganaArusha
Arusha,Nyandila,36.71061863,-2.65318734,1396.0,NyandilaArusha
Arusha,Oiganomelo,35.66032592,-2.9545952,2576.0,OiganomeloArusha
Arusha,Oikanemelo,35.66049779,-2.9542796,2585.0,OikanemeloArusha
Arusha,Okononoi,36.98337755,-3.36113027,1065.0,OkononoiArusha
Arusha,Olama,36.65065143916667,-3.254605038333333,1871.4166666666667,OlamaArusha
Arusha,Olchoronyokye,36.260773400000005,-2.9091161575,2141.25,OlchoronyokyeArusha
Arusha,Oldeves,36.907748993333335,-3.09886039,1295.6666666666667,OldevesArusha
Arusha,Oldonyo,36.51242381,-2.65498625,1511.0,OldonyoArusha
Arusha,Oldonyowas,36.535228461538466,-3.0007446653846155,1923.4615384615386,OldonyowasArusha
Arusha,Oldorko,36.66041685666667,-2.686319606666667,1361.6666666666667,OldorkoArusha
Arusha,Oleiguruno,36.69435917454545,-3.3182004163636365,1652.0,OleigurunoArusha
Arusha,Olesiraa,36.48516283,-3.37957362,1365.0,OlesiraaArusha
Arusha,Olidendereiti,36.7810419,-3.50357608,999.0,OlidendereitiArusha
Arusha,Olimareti,36.701500769999996,-3.3436514324999997,1498.25,OlimaretiArusha
Arusha,Olinyidi,36.67275959,-3.2975804260000006,1702.8,OlinyidiArusha
Arusha,Olkilorit,36.47163087,-3.34215984,1418.0,OlkiloritArusha
Arusha,Olkononoi,36.97909559866665,-3.3575253946666668,1131.2666666666667,OlkononoiArusha
Arusha,Olkung'Wado,36.87260635111111,-3.1657007766666667,1447.2222222222222,Olkung'WadoArusha
Arusha,Olkungw'Ado,36.868031704,-3.1716575860000003,1445.4,Olkungw'AdoArusha
Arusha,Olkurolit,36.64136948,-3.2117129233333337,1868.0,OlkurolitArusha
Arusha,Olmatejoo,36.67150135,-3.37164308,1379.0,OlmatejooArusha
Arusha,Olmot,35.19020292,-3.295006375,1606.5,OlmotArusha
Arusha,Olmotonyi,36.69540442,-3.5756602500000003,1021.0,OlmotonyiArusha
Arusha,Olnoswa,36.56934594,-3.369906405,1360.5,OlnoswaArusha
Arusha,Olodendereit,36.73394647999999,-3.477445056666667,1147.0,OlodendereitArusha
Arusha,Olodonyo,36.70461729,-3.31680671,1835.0,OlodonyoArusha
Arusha,Ologelo,36.714261235,-3.335931295,1602.5,OlogeloArusha
Arusha,Oloipiri,35.435378165,-2.04250038,1983.0,OloipiriArusha
Arusha,Ololikoti,36.590877135,-3.258946775,1696.0,OlolikotiArusha
Arusha,Ololosokwan,35.33912643,-1.8768949,1915.0,OlolosokwanArusha
Arusha,Ololua,36.61235163333333,-3.2330776500000002,1747.8333333333333,OloluaArusha
Arusha,Olomatejo,36.70243708142857,-3.340212015714286,1514.857142857143,OlomatejoArusha
Arusha,Olomitu,36.76019673533333,-3.4172865880000005,1257.8,OlomituArusha
Arusha,Olorien,36.651226544,-3.3387412579999998,1485.2,OlorienArusha
Arusha,Olorieni,36.71890376,-3.433833234,1250.6,OlorieniArusha
Arusha,Olorieni Kat,36.72514377,-3.43163104,1266.0,Olorieni KatArusha
Arusha,Olorieni Kati,36.71993226,-3.43362522,1265.0,Olorieni KatiArusha
Arusha,Olorisyo,36.30925362,-3.76176128,1366.5,OlorisyoArusha
Arusha,Olovolosi,36.68044954,-3.38388334,1357.0,OlovolosiArusha
Arusha,Olovolusi,36.732662935,-3.3350160100000004,1659.0,OlovolusiArusha
Arusha,Olpiro Kati,35.282713496666666,-3.336091243333333,1057.0,Olpiro KatiArusha
Arusha,Oltinga,36.72858912,-2.74236572,1301.0,OltingaArusha
Arusha,Oltroto,36.69127798125,-3.33561423625,1526.75,OltrotoArusha
Arusha,Oltukay,35.919896021999996,-3.63226899,968.2,OltukayArusha
Arusha,Olubomba,36.62438653666666,-3.2139147933333336,1820.5,OlubombaArusha
Arusha,Olubombani,36.540866765000004,-3.23703435,1903.0,OlubombaniArusha
Arusha,Olumeli,36.69399922428571,-3.2995389328571427,1758.7142857142858,OlumeliArusha
Arusha,Olumeri,36.69376396,-3.29808751,1739.0,OlumeriArusha
Arusha,Olumesela,36.816387395,-3.4443163649999997,1082.0,OlumeselaArusha
Arusha,Olumkuna,36.57408437,-3.24229986,1899.0,OlumkunaArusha
Arusha,Oonjorai,35.50534575,-3.0384581,1584.0,OonjoraiArusha
Arusha,Oonjurai,35.50524889,-3.03875972,1577.0,OonjuraiArusha
Arusha,Orbomba,36.688167025,-2.721091265,1373.5,OrbombaArusha
Arusha,Orbukoi,36.058734217499996,-3.6687904025,1093.75,OrbukoiArusha
Arusha,Orkaria,36.46537173,-3.30301559,1538.0,OrkariaArusha
Arusha,Orkesumet,36.59214195,-2.45002604,1666.0,OrkesumetArusha
Arusha,Orkolili,36.602223425,-3.5578302849999996,1209.0,OrkoliliArusha
Arusha,Orkolkolu,36.057638185,-3.20588936,980.0,OrkolkoluArusha
Arusha,Ormang'Wai,36.08939366,-3.60030572,1101.0,Ormang'WaiArusha
Arusha,Ormanie,36.361713155000004,-2.7994546175000004,1092.0,OrmanieArusha
Arusha,Oroirwa,36.697412895,-3.334616684,1544.5,OroirwaArusha
Arusha,Orpura,36.005012317500004,-2.6275589125,648.75,OrpuraArusha
Arusha,Orpuruwa,36.556582713333334,-3.46011407,1289.6666666666667,OrpuruwaArusha
Arusha,Orro,36.945212595,-2.95611536,1197.5,OrroArusha
Arusha,Orwatela,36.79530362,-3.32109691,1683.0,OrwatelaArusha
Arusha,Osinoni,35.09572203,-3.36153992,1613.0,OsinoniArusha
Arusha,Osinyai,36.6995849275,-3.0366657999999997,1388.75,OsinyaiArusha
Arusha,Osterbay,36.67105401,-3.37318672,1366.0,OsterbayArusha
Arusha,Osunyai,36.66801829999999,-3.38729848,1329.0,OsunyaiArusha
Arusha,Patandi,36.78226020444444,-3.3687965922222225,1313.888888888889,PatandiArusha
Arusha,Patendi,36.78351196,-3.37163226,1309.0,PatendiArusha
Arusha,Patruman,36.717098123636376,-3.124509919090909,1622.6363636363637,PatrumanArusha
Arusha,Pinyinyi,35.930766950000006,-2.32607819,632.0,PinyinyiArusha
Arusha,Poli Kati,36.79859336,-3.34265745,1445.0,Poli KatiArusha
Arusha,Puslukunya,36.48224780333333,-3.135938933333333,1209.0,PuslukunyaArusha
Arusha,Qanqali,35.878324140000004,-3.26271286,1606.5,QanqaliArusha
Arusha,Qaru,35.630050385000004,-3.513077795,1456.5,QaruArusha
Arusha,Rambo Kaskazini,35.70593919,-3.37603316,1455.0,Rambo KaskaziniArusha
Arusha,Randiren,36.0520363,-3.68506859,1101.0,RandirenArusha
Arusha,Rc,36.644513708,-3.2595407846666666,1623.8,RcArusha
Arusha,Relini,37.02633668,-3.37590291,931.0,ReliniArusha
Arusha,Rhotia,35.718752775,-3.326056355,1550.5,RhotiaArusha
Arusha,Rikokola,37.2349014575,-2.8391052325,1597.75,RikokolaArusha
Arusha,Rosrway,36.74248906,-3.4167315049999996,1285.0,RosrwayArusha
Arusha,Rumale,36.799999650000004,-3.34026823,1503.5,RumaleArusha
Arusha,Sabasaba,35.861745345,-3.28031874,1513.0,SabasabaArusha
Arusha,Sabato,35.655546154999996,-3.3276314,1550.5,SabatoArusha
Arusha,Sabore,36.64525119166666,-3.3387117483333335,1457.6666666666667,SaboreArusha
Arusha,Saborien,36.65006074666667,-3.3405928166666663,1476.6666666666667,SaborienArusha
Arusha,Sabrata,35.57561153,-3.41438866,1370.0,SabrataArusha
Arusha,Sabreta,35.57598197,-3.40956986,1397.0,SabretaArusha
Arusha,Sakei,36.675933960833326,-3.356579613333334,1421.6666666666667,SakeiArusha
Arusha,Salama,35.60889302333334,-3.5545027866666667,1501.6666666666667,SalamaArusha
Arusha,Sale,35.70866209,-2.288737825,1244.5,SaleArusha
Arusha,Salunga,36.6174375375,-3.2113886125,1801.5,SalungaArusha
Arusha,Sama,36.70122552400001,-3.354368532,1446.4,SamaArusha
Arusha,Samanga,36.66195455,-3.3725740966666664,1369.0,SamangaArusha
Arusha,Samaria,36.806658237777775,-3.5010547655555553,980.5555555555555,SamariaArusha
Arusha,Sambagani,36.66352066,-3.3727168,1371.0,SambaganiArusha
Arusha,Samunge,35.69972646,-2.15984581,1339.0,SamungeArusha
Arusha,Sanawari,36.69575515,-3.35867158,1414.0,SanawariArusha
Arusha,Sanawarii,36.69589628,-3.35837977,1433.0,SanawariiArusha
Arusha,Sandawe,36.8021423275,-3.4964232625,986.0,SandaweArusha
Arusha,Sanganani,36.746435285000004,-3.363630335,1425.5,SangananiArusha
Arusha,Sangananu,36.74407789,-3.36081717,1490.0,SangananuArusha
Arusha,Sangarini,37.399605969999996,-2.890996245,1906.5,SangariniArusha
Arusha,Saravo,36.58684944,-3.41152693,1381.0,SaravoArusha
Arusha,Sasagwenju,35.333802745,-3.517087525,1041.5,SasagwenjuArusha
Arusha,Sasanwe,35.71048756,-2.15006575,1347.0,SasanweArusha
Arusha,Scarida,36.717119303333334,-2.53406683,1402.3333333333333,ScaridaArusha
Arusha,School,36.64170263,-3.41299186,1321.0,SchoolArusha
Arusha,Seela Kati,36.787278168,-3.3340400600000004,1521.2,Seela KatiArusha
Arusha,Sekei,36.74358482333333,-3.3966156499999998,1347.3333333333333,SekeiArusha
Arusha,Senato,36.90238049,-3.2575938,1546.0,SenatoArusha
Arusha,Sendui,35.75202087,-2.91090655,2770.0,SenduiArusha
Arusha,Seneto,36.906218685,-3.2582331383333334,1544.5,SenetoArusha
Arusha,Sepeko,36.34794936,-3.40965225,1319.0,SepekoArusha
Arusha,Serera,35.91688659666667,-3.1638899333333335,1729.3333333333333,SereraArusha
Arusha,Sero,35.33177897,-1.82296016,1866.0,SeroArusha
Arusha,Seuli,36.629315074285714,-3.2853572614285715,1593.642857142857,SeuliArusha
Arusha,Shambarai Kati,36.899243569999996,-3.562251636666667,930.0,Shambarai KatiArusha
Arusha,Shangiti,35.716292579999994,-3.4631987800000004,1316.3333333333333,ShangitiArusha
Arusha,Shara,36.81747763,-3.32148764,1567.0,SharaArusha
Arusha,Shaudo,36.63919874249999,-3.2328374025,1851.3125,ShaudoArusha
Arusha,Shimamo,36.04564979,-3.63547326,1053.0,ShimamoArusha
Arusha,Shimbumbu,36.78655326714285,-3.355407318571428,1452.0,ShimbumbuArusha
Arusha,Shishitony,36.95123729,-3.22798621,1352.0,ShishitonyArusha
Arusha,Shule,36.67760518,-3.321307525,1594.5,ShuleArusha
Arusha,Shuleni,36.533965804,-3.327031898,1287.4888888888888,ShuleniArusha
Arusha,Siayi Chini,35.797197175,-3.2788387200000004,1540.0,Siayi ChiniArusha
Arusha,Siayi Juu,35.7905793275,-3.25941526,1599.75,Siayi JuuArusha
Arusha,Simangeda,35.35405406,-3.49616666,1026.0,SimangedaArusha
Arusha,Simanjiro,36.69972282333334,-3.366353176666667,1437.0,SimanjiroArusha
Arusha,Sinai,36.91076916,-3.196202585,1493.0,SinaiArusha
Arusha,Sindikala,36.683666935000005,-3.3196444400000003,1598.0,SindikalaArusha
Arusha,Siyoni,36.851654710000005,-3.3939260300000003,1114.0,SiyoniArusha
Arusha,Skuta,36.921894861666665,-3.2283439000000005,1430.0,SkutaArusha
Arusha,Soine,36.660709078000004,-3.3512455239999994,1445.4,SoineArusha
Arusha,Soitsambu,35.41928713,-1.90369181,2013.0,SoitsambuArusha
Arusha,Sokoni,36.88984879615385,-3.3665914992307693,1171.6153846153845,SokoniArusha
Arusha,Songambele,36.954827476000006,-3.346496978,1178.6,SongambeleArusha
Arusha,Sovoyo,36.5848503075,-3.3796546675,1382.25,SovoyoArusha
Arusha,Soyekiutu,36.720538204,-3.339836698,1577.8,SoyekiutuArusha
Arusha,Stesheni,36.646121516666675,-3.2484363906666665,1873.0666666666666,StesheniArusha
Arusha,Stoni,36.79658709,-3.3662881766666666,1282.3333333333333,StoniArusha
Arusha,Subreta,35.587091224999995,-3.40626012,1405.0,SubretaArusha
Arusha,Sukenya,35.511666643333335,-1.9557632633333333,2044.0,SukenyaArusha
Arusha,Sukumeni,36.56309652,-3.25731311,1816.0,SukumeniArusha
Arusha,Sumbati,35.36025662,-3.20252776,2304.0,SumbatiArusha
Arusha,Sumlei,36.641148193846156,-3.320506996153846,1508.923076923077,SumleiArusha
Arusha,Sura,36.70357521,-3.1574414466666667,1865.5,SuraArusha
Arusha,Surumala,36.93854612,-3.3684027337500004,1135.625,SurumalaArusha
Arusha,Surumali,36.934390113333336,-3.3673519866666664,1127.0,SurumaliArusha
Arusha,Tanaka,36.68394965666666,-3.3564541749999997,1434.5,TanakaArusha
Arusha,Tanesco,36.900313381428575,-3.3977653835714285,1119.4285714285713,TanescoArusha
Arusha,Tanganyika Pekas,36.74437012,-3.40325184,1316.0,Tanganyika PekasArusha
Arusha,Tanganyika Pekasi,36.7431713,-3.40405229,1332.0,Tanganyika PekasiArusha
Arusha,Tangini,36.89802280444444,-3.3433835166666674,1270.3333333333333,TanginiArusha
Arusha,Tanki,36.89620769,-3.11440431,1304.0,TankiArusha
Arusha,Tarakwa,36.66199476428572,-3.3337103257142857,1559.0,TarakwaArusha
Arusha,Tasata,35.782550725,-3.27625702,1523.5,TasataArusha
Arusha,Tdd,35.84229132,-3.2926919124999996,1474.0,TddArusha
Arusha,Teena,36.84123205,-3.347448583333333,1247.0,TeenaArusha
Arusha,Tengeru,36.78349939666667,-3.3715925216666665,1307.8333333333333,TengeruArusha
Arusha,Tenki,36.8982757,-3.114505384,1302.4,TenkiArusha
Arusha,Tfa,35.675299396666674,-3.3346336366666662,1518.3333333333333,TfaArusha
Arusha,Themi Mashariki,36.70002704,-3.392519,1325.0,Themi MasharikiArusha
Arusha,Titiwi,35.68653895,-3.41521246,1468.0,TitiwiArusha
Arusha,Tlaa,35.624096655,-3.490405345,1388.5,TlaaArusha
Arusha,Tlawi Juu,35.80329415,-3.254925358,1667.4,Tlawi JuuArusha
Arusha,Tlawi Kati,35.805942825,-3.2773612374999996,1546.75,Tlawi KatiArusha
Arusha,Tloma,35.864177604,-3.24660324,1698.8,TlomaArusha
Arusha,Tsini,35.82707985,-3.26722749,1607.0,TsiniArusha
Arusha,Uavii,36.65860458,-3.30694044,1612.5,UaviiArusha
Arusha,Ufana,35.62772085,-3.3493566675,1529.5,UfanaArusha
Arusha,Ujamaa,36.690529559999995,-3.586468475,1012.8333333333334,UjamaaArusha
Arusha,Ulangini,36.794172270000004,-3.56442809,978.0,UlanginiArusha
Arusha,Ulkononoi,36.97102648,-3.35919574,1226.0,UlkononoiArusha
Arusha,Ulkusare,36.96087700461539,-3.3463768384615387,1328.8076923076924,UlkusareArusha
Arusha,Umbe,35.635343166666665,-3.35878483,1499.6666666666667,UmbeArusha
Arusha,Unguuni,36.799768217499995,-3.4967801350000003,991.5,UnguuniArusha
Arusha,Upendo,36.80263285,-3.4532400360000004,1064.4,UpendoArusha
Arusha,Urisho,36.967094610000004,-3.2774495449999996,1209.5,UrishoArusha
Arusha,Urundini,36.65746371,-3.37015346,1365.0,UrundiniArusha
Arusha,Ushili,36.7941871,-3.32512296,1630.0,UshiliArusha
Arusha,Uzunguni,36.830842136428565,-3.2168860849999996,1524.857142857143,UzunguniArusha
Arusha,Viwandani,36.683478735,-3.38194176,1355.5,ViwandaniArusha
Arusha,Voole,36.63459675,-3.33219138,1474.0,VooleArusha
Arusha,W/S,35.835866085,-3.2528048825,1690.25,W/SArusha
Arusha,Wasso,35.557931812999996,-2.056886935,2057.9,WassoArusha
Arusha,Wataalam,36.65738652,-3.3144801299999997,1541.5,WataalamArusha
Arusha,Wtskim,35.83491709,-3.25801203,1680.0,WtskimArusha
Arusha,Yoanes,36.637927893333334,-3.3123171399999998,1508.3333333333333,YoanesArusha
Arusha,Yudek,35.50024972333334,-3.38818515,1549.6666666666667,YudekArusha
Arusha,Zaburi,36.060755453,-3.529675503,1038.4,ZaburiArusha
Arusha,Zahanati,36.77136938,-3.16261669,2158.0,ZahanatiArusha
Arusha,Zaire,36.860551351304345,-3.48577973,963.7391304347826,ZaireArusha
Dar es Salaam,Amani Gomvu,39.48142456,-6.9353778,-2.0,Amani GomvuDar es Salaam
Dar es Salaam,Azimio,39.1351784,-6.70969097,107.0,AzimioDar es Salaam
Dar es Salaam,Basihaya,39.16253395,-6.63899236,-19.0,BasihayaDar es Salaam
Dar es Salaam,Bondeni,39.53459924,-7.08818301,-19.0,BondeniDar es Salaam
Dar es Salaam,Buyuni,39.5215713,-7.12888268,-52.0,BuyuniDar es Salaam
Dar es Salaam,Buyuni Centre,39.52081696,-7.1199834000000015,-35.0,Buyuni CentreDar es Salaam
Dar es Salaam,Ccm,39.48030567,-6.93497361,-4.0,CcmDar es Salaam
Dar es Salaam,Chuo Cha Ualimu,39.41263752,-6.86352262,-43.0,Chuo Cha UalimuDar es Salaam
Dar es Salaam,Dege,39.441578207499994,-6.897918552499999,-23.5,DegeDar es Salaam
Dar es Salaam,Goba,39.161499481999996,-6.740820234666667,86.8,GobaDar es Salaam
Dar es Salaam,Golani,39.517960325000004,-7.000109805,3.0,GolaniDar es Salaam
Dar es Salaam,Gulubwida,39.50606948,-7.15299639,-25.0,GulubwidaDar es Salaam
Dar es Salaam,Jakaya,39.09651253,-6.64242645,48.0,JakayaDar es Salaam
Dar es Salaam,Jangwani,39.356934995,-6.858623995,-25.5,JangwaniDar es Salaam
Dar es Salaam,Kanisani,39.41360222,-6.96656294,21.0,KanisaniDar es Salaam
Dar es Salaam,Kanisani Rc,39.48119249,-6.8990694,-37.0,Kanisani RcDar es Salaam
Dar es Salaam,Kasikazini,39.44213496,-6.8905616,-20.0,KasikaziniDar es Salaam
Dar es Salaam,Kchemchem,39.33096519,-6.88081557,-20.0,KchemchemDar es Salaam
Dar es Salaam,Kibugumo Msikitini,39.37325944,-6.8656573000000005,-36.0,Kibugumo MsikitiniDar es Salaam
Dar es Salaam,Kibwegere,39.043711935,-6.751842015,68.5,KibwegereDar es Salaam
Dar es Salaam,Kichangachui,39.37370696,-6.87047415,-29.0,KichangachuiDar es Salaam
Dar es Salaam,Kichangani,39.352887374999995,-6.913191019166667,41.75,KichanganiDar es Salaam
Dar es Salaam,Kichemchem 2,39.33169508,-6.88363802,-7.0,Kichemchem 2Dar es Salaam
Dar es Salaam,Kidadaa,39.53433925,-7.00800854,-12.0,KidadaaDar es Salaam
Dar es Salaam,Kidagaa,39.53515912333334,-7.0123373566666665,-25.333333333333332,KidagaaDar es Salaam
Dar es Salaam,Kigogo,39.36542891,-6.902879296666666,-4.5,KigogoDar es Salaam
Dar es Salaam,Kikwete Vision,39.103777306666665,-6.647226149999999,49.333333333333336,Kikwete VisionDar es Salaam
Dar es Salaam,Kilimahewa,39.174063221428575,-6.702700845714285,64.0,KilimahewaDar es Salaam
Dar es Salaam,Kilindijumbe,39.51023164,-6.97641707,-4.0,KilindijumbeDar es Salaam
Dar es Salaam,Kinzudi,39.18572139636364,-6.730089248181818,66.0,KinzudiDar es Salaam
Dar es Salaam,Kiponza,39.21797915,-6.97589143,29.0,KiponzaDar es Salaam
Dar es Salaam,Kisanga 'A',39.171701604999996,-6.67231696,11.5,Kisanga 'A'Dar es Salaam
Dar es Salaam,Kisanga A',39.17385502,-6.67251757,9.0,Kisanga A'Dar es Salaam
Dar es Salaam,Kisauke,39.13350474,-6.700789715,89.5,KisaukeDar es Salaam
Dar es Salaam,Kitomondo,39.532623799999996,-7.059214065,-16.5,KitomondoDar es Salaam
Dar es Salaam,Kizani,39.39800431041666,-6.870838874583331,-20.291666666666668,KizaniDar es Salaam
Dar es Salaam,Kizito Huonjwa,39.52786169,-6.98635796,-15.0,Kizito HuonjwaDar es Salaam
Dar es Salaam,Kiziza,39.34122378,-6.87828374,-8.0,KizizaDar es Salaam
Dar es Salaam,Kotomondo,39.53352229,-7.05961761,1.0,KotomondoDar es Salaam
Dar es Salaam,Kwa,39.36381206,-6.86424983,-35.0,KwaDar es Salaam
Dar es Salaam,Kwa Abbas Mwinyichum,39.36122258,-6.86120992,-47.0,Kwa Abbas MwinyichumDar es Salaam
Dar es Salaam,Kwa Hamza,39.33593292,-6.89800141,12.0,Kwa HamzaDar es Salaam
Dar es Salaam,Kwa Juma,39.36702187,-6.8654517,-42.0,Kwa JumaDar es Salaam
Dar es Salaam,Kwa Kweka 2,39.37121958,-6.86615448,-63.0,Kwa Kweka 2Dar es Salaam
Dar es Salaam,Kwa Madadi,39.364544625,-6.8637300450000005,-32.0,Kwa MadadiDar es Salaam
Dar es Salaam,Kwa Mgeni,39.36124233,-6.86164095,-37.0,Kwa MgeniDar es Salaam
Dar es Salaam,Kwa Missfumo,39.34250345,-6.89372106,1.0,Kwa MissfumoDar es Salaam
Dar es Salaam,Kwa Moris,39.53131281,-7.0427844,-1.0,Kwa MorisDar es Salaam
Dar es Salaam,Kwa Sadara,39.33713777,-6.90359487,30.0,Kwa SadaraDar es Salaam
Dar es Salaam,Kwa Siasa,39.36865443,-6.86491072,-48.0,Kwa SiasaDar es Salaam
Dar es Salaam,Kwa Yusuph,39.36430333,-6.86627474,-43.0,Kwa YusuphDar es Salaam
Dar es Salaam,Kwachale,39.53081799,-7.0261666,5.0,KwachaleDar es Salaam
Dar es Salaam,Kwakibasila,39.42303514,-6.98922531,30.0,KwakibasilaDar es Salaam
Dar es Salaam,Kwembe,39.08413773428571,-6.817087564285714,144.42857142857142,KwembeDar es Salaam
Dar es Salaam,Lingato,39.37407836,-6.94817873,2.0,LingatoDar es Salaam
Dar es Salaam,Mabwepande,39.073057165,-6.6578181275,41.0,MabwepandeDar es Salaam
Dar es Salaam,Madala Kati,39.13522979,-6.68690322,68.75,Madala KatiDar es Salaam
Dar es Salaam,Madale Kati,39.13603616,-6.6852803,66.0,Madale KatiDar es Salaam
Dar es Salaam,Madrasa,39.52711433,-6.98874758,-15.0,MadrasaDar es Salaam
Dar es Salaam,Magengeni,39.4729740775,-7.0191343125,-3.75,MagengeniDar es Salaam
Dar es Salaam,Makondeni,39.42545821,-7.0017516,54.5,MakondeniDar es Salaam
Dar es Salaam,Mangara,39.33781879,-6.89841917,10.0,MangaraDar es Salaam
Dar es Salaam,Maputo,39.13122311,-6.57636729,-23.0,MaputoDar es Salaam
Dar es Salaam,Matosa,39.13782831666667,-6.741020943333333,97.83333333333333,MatosaDar es Salaam
Dar es Salaam,Maweni,39.34645629571429,-6.8381177571428555,-26.428571428571427,MaweniDar es Salaam
Dar es Salaam,Mbondole,39.153363195,-6.97899952,57.5,MbondoleDar es Salaam
Dar es Salaam,Mbwamaji,39.41422504,-6.865251228,-43.6,MbwamajiDar es Salaam
Dar es Salaam,Miembe Dekwa,39.52402148,-6.98480223,-20.0,Miembe DekwaDar es Salaam
Dar es Salaam,Minondo,39.48100589,-6.93394283,13.0,MinondoDar es Salaam
Dar es Salaam,Mitimifu,39.35134171,-6.85530332,-20.0,MitimifuDar es Salaam
Dar es Salaam,Mivumoni,39.15608471,-6.67342013,56.0,MivumoniDar es Salaam
Dar es Salaam,Mji Mwema,39.34271659,-6.85164021,-27.0,Mji MwemaDar es Salaam
Dar es Salaam,Mjimwema 1,39.352696,-6.84960283,-19.0,Mjimwema 1Dar es Salaam
Dar es Salaam,Mkamba,39.41449421,-7.027060090000001,2.0,MkambaDar es Salaam
Dar es Salaam,Mkwajuni,39.32299312142857,-6.856394101428572,-19.0,MkwajuniDar es Salaam
Dar es Salaam,Mpigi Magoe,39.05669488,-6.72169757,39.0,Mpigi MagoeDar es Salaam
Dar es Salaam,Mpiji,39.111302435,-6.590978475,-10.5,MpijiDar es Salaam
Dar es Salaam,Msikitini,39.41508475,-6.917078932500001,-28.25,MsikitiniDar es Salaam
Dar es Salaam,Msumi,39.10243740333333,-6.705899723333332,87.66666666666667,MsumiDar es Salaam
Dar es Salaam,Mtaa Wa Bombani,39.12034193,-6.899872169999999,78.83333333333333,Mtaa Wa BombaniDar es Salaam
Dar es Salaam,Mtaa Wa Bonyokwa,39.16007247,-6.83016349,76.75,Mtaa Wa BonyokwaDar es Salaam
Dar es Salaam,Mtaa Wa Kichangani,39.127200859999995,-6.9042705504000015,63.92,Mtaa Wa KichanganiDar es Salaam
Dar es Salaam,Mtaa Wa Kifuru,39.12114196,-6.834066744999999,86.5,Mtaa Wa KifuruDar es Salaam
Dar es Salaam,Mtaa Wa Kigezi,39.100010565000005,-6.964734467000001,61.2,Mtaa Wa KigeziDar es Salaam
Dar es Salaam,Mtaa Wa Kigogo Fresh,39.12117191375,-6.912010433124999,60.375,Mtaa Wa Kigogo FreshDar es Salaam
Dar es Salaam,Mtaa Wa Kimwani,39.07684410666666,-7.0009754583333335,74.0,Mtaa Wa KimwaniDar es Salaam
Dar es Salaam,Mtaa Wa Kinyamwezi,39.11728071444444,-6.924281265555556,56.77777777777778,Mtaa Wa KinyamweziDar es Salaam
Dar es Salaam,Mtaa Wa Kinyerezi,39.161691678181825,-6.846031256363637,53.54545454545455,Mtaa Wa KinyereziDar es Salaam
Dar es Salaam,Mtaa Wa Kipunguni B,39.17245599171428,-6.900792395428571,29.542857142857144,Mtaa Wa Kipunguni BDar es Salaam
Dar es Salaam,Mtaa Wa Kitonga,39.153822123333335,-7.0030906633333325,42.666666666666664,Mtaa Wa KitongaDar es Salaam
Dar es Salaam,Mtaa Wa Kitunda Kati,39.198346713928565,-6.898295050595239,13.892857142857142,Mtaa Wa Kitunda KatiDar es Salaam
Dar es Salaam,Mtaa Wa Kivule,39.17601561728814,-6.925145505762711,14.813559322033898,Mtaa Wa KivuleDar es Salaam
Dar es Salaam,Mtaa Wa Lubakaya,39.08326688499999,-7.011623959166667,70.83333333333333,Mtaa Wa LubakayaDar es Salaam
Dar es Salaam,Mtaa Wa Lukooni,39.08739963199999,-7.004298338000001,71.1,Mtaa Wa LukooniDar es Salaam
Dar es Salaam,Mtaa Wa Mbondole,39.151117004,-6.975032342,38.2,Mtaa Wa MbondoleDar es Salaam
Dar es Salaam,Mtaa Wa Mgeule,39.104527663333336,-6.9449388433333334,66.16666666666667,Mtaa Wa MgeuleDar es Salaam
Dar es Salaam,Mtaa Wa Mji Mpya,39.160505416,-6.900339862,24.8,Mtaa Wa Mji MpyaDar es Salaam
Dar es Salaam,Mtaa Wa Mvuleni,39.15878885,-7.001400530000001,43.666666666666664,Mtaa Wa MvuleniDar es Salaam
Dar es Salaam,Mtaa Wa Mzinga,39.20715643346154,-6.913909867307691,13.653846153846153,Mtaa Wa MzingaDar es Salaam
Dar es Salaam,Mtaa Wa Nyeburu,39.093796042777775,-6.961538687777778,67.72222222222223,Mtaa Wa NyeburuDar es Salaam
Dar es Salaam,Mtaa Wa Nzasa,39.04979058,-7.02829096,82.0,Mtaa Wa NzasaDar es Salaam
Dar es Salaam,Mtaa Wa Pugu Bangulo,39.132738766,-6.867495201999999,69.8,Mtaa Wa Pugu BanguloDar es Salaam
Dar es Salaam,Mtaa Wa Pugu Station,39.123394035833336,-6.882484745833334,55.333333333333336,Mtaa Wa Pugu StationDar es Salaam
Dar es Salaam,Mtaa Wa Tungini,39.089852406153845,-6.980572834615385,77.76923076923077,Mtaa Wa TunginiDar es Salaam
Dar es Salaam,Mtaa Wa Vikongolo,39.087579774999995,-6.987492219999999,80.0,Mtaa Wa VikongoloDar es Salaam
Dar es Salaam,Mtaa Wa Vikongoro,39.09651030723405,-6.9825593585106365,69.14893617021276,Mtaa Wa VikongoroDar es Salaam
Dar es Salaam,Mtaa Wa Yangeyange,39.177531649375005,-6.97119938875,26.25,Mtaa Wa YangeyangeDar es Salaam
Dar es Salaam,Mtaa Wa Yongwe,39.11292005466667,-6.994847523999999,48.266666666666666,Mtaa Wa YongweDar es Salaam
Dar es Salaam,Mtaa Wa Zavala,39.10506316625,-6.9514551424999995,60.0,Mtaa Wa ZavalaDar es Salaam
Dar es Salaam,Mtaa Wa Zingiziwa,39.08315377833333,-7.042661915,54.5,Mtaa Wa ZingiziwaDar es Salaam
Dar es Salaam,Mtaa Yangeyange,39.177991077499996,-6.973614435,29.0,Mtaa YangeyangeDar es Salaam
Dar es Salaam,Muhogo Mbwana,39.42583886,-6.99381496,30.0,Muhogo MbwanaDar es Salaam
Dar es Salaam,Mumba,39.53168724,-7.04983676,-4.5,MumbaDar es Salaam
Dar es Salaam,Munduli,39.32787134,-6.86376375,-28.0,MunduliDar es Salaam
Dar es Salaam,Mwaninga,39.410903063333336,-6.969807566666667,9.666666666666666,MwaningaDar es Salaam
Dar es Salaam,Mwasonga Magengeni,39.42470820000001,-6.99815437,40.0,Mwasonga MagengeniDar es Salaam
Dar es Salaam,Mwembe,39.3629743,-6.86267162,-33.0,MwembeDar es Salaam
Dar es Salaam,Mwembe Bami,39.21980557,-6.96874756,17.0,Mwembe BamiDar es Salaam
Dar es Salaam,Mwera,39.40961317,-6.8763401,-28.0,MweraDar es Salaam
Dar es Salaam,Mzambarauni,39.37135389,-6.86444201,-21.0,MzambarauniDar es Salaam
Dar es Salaam,Nape,39.09212834,-6.6391024875,49.5,NapeDar es Salaam
Dar es Salaam,New City,39.094897894999995,-6.642709003750001,51.125,New CityDar es Salaam
Dar es Salaam,Ngobanya,39.51363562,-6.96825032,-6.0,NgobanyaDar es Salaam
Dar es Salaam,Nyakwale,39.34314139,-6.894325383333334,0.6666666666666666,NyakwaleDar es Salaam
Dar es Salaam,Nyange,39.4157549475,-7.102976422499999,-11.75,NyangeDar es Salaam
Dar es Salaam,Nyau,39.3973539,-6.86608099,-27.0,NyauDar es Salaam
Dar es Salaam,Ofisi Ya Kata,39.3404686,-6.89422427,7.0,Ofisi Ya KataDar es Salaam
Dar es Salaam,Parokiani Kimbiji,39.53214169,-7.00752957,-15.0,Parokiani KimbijiDar es Salaam
Dar es Salaam,Pemba Mnazi Centre,39.50639315,-7.1619042,-14.5,Pemba Mnazi CentreDar es Salaam
Dar es Salaam,Puna Centre,39.5338265,-7.07071371,-12.0,Puna CentreDar es Salaam
Dar es Salaam,Ridhione,39.092903326,-6.647176974,49.6,RidhioneDar es Salaam
Dar es Salaam,Rufu,39.21359289,-6.98352072,11.0,RufuDar es Salaam
Dar es Salaam,Salanga,39.34723921,-6.8508435925,-20.75,SalangaDar es Salaam
Dar es Salaam,Sara,39.48595694,-6.917055335000001,-12.5,SaraDar es Salaam
Dar es Salaam,Sekondari,39.53713175,-7.00196327,-19.0,SekondariDar es Salaam
Dar es Salaam,Sekondari Kimbiji,39.53550928,-7.00210279,-20.0,Sekondari KimbijiDar es Salaam
Dar es Salaam,Serikali Za Mitaa,39.42953307,-6.89257089,-1.0,Serikali Za MitaaDar es Salaam
Dar es Salaam,Serikari Ya Mtaa Ya Zamani,39.3538463,-6.85570546,-19.0,Serikari Ya Mtaa Ya ZamaniDar es Salaam
Dar es Salaam,Shirikisho,39.47305674,-6.9179474,-27.0,ShirikishoDar es Salaam
Dar es Salaam,Shule,39.5261829,-6.98686896,-14.0,ShuleDar es Salaam
Dar es Salaam,Shule Ya Msingi,39.41471479,-6.8638996,-42.0,Shule Ya MsingiDar es Salaam
Dar es Salaam,Shule Yamsingi Kizito Huonjwa,39.52530703,-6.98519084,-4.0,Shule Yamsingi Kizito HuonjwaDar es Salaam
Dar es Salaam,Shule/Police,39.42162338,-6.98517263,28.0,Shule/PoliceDar es Salaam
Dar es Salaam,Shuleni,39.46671049285714,-7.022414654285714,-15.214285714285714,ShuleniDar es Salaam
Dar es Salaam,Sokoni,39.33751876,-6.90076105,59.0,SokoniDar es Salaam
Dar es Salaam,Songani,39.429207669,-7.101956427,-16.5,SonganiDar es Salaam
Dar es Salaam,Tundwi Centre,39.434715833333335,-7.098164860000001,-12.5,Tundwi CentreDar es Salaam
Dar es Salaam,Ungindoni,39.353542515,-6.862230565,-17.5,UngindoniDar es Salaam
Dar es Salaam,Ungindoni Kwa Bwazo,39.3563375,-6.85922578,-7.0,Ungindoni Kwa BwazoDar es Salaam
Dar es Salaam,Ungindoni Salanga,39.343808255,-6.861315805,-15.5,Ungindoni SalangaDar es Salaam
Dar es Salaam,Ungindoni Salannga,39.34679814,-6.86414768,-18.0,Ungindoni SalanngaDar es Salaam
Dar es Salaam,Zahanati,39.48496732,-7.029155682000001,-23.6,ZahanatiDar es Salaam
Dar es Salaam,Zahanati 2,39.41307608,-6.865650099999999,-47.0,Zahanati 2Dar es Salaam
Dodoma,Abdu Jumbe,36.025176705,-6.711364735,0.0,Abdu JumbeDodoma
Dodoma,Abdujumbe,35.744951477499995,-6.030870520000001,0.0,AbdujumbeDodoma
Dodoma,Airport,36.492642939999996,-7.1096599,0.0,AirportDodoma
Dodoma,Alagwa,35.766429868,-4.611692339999999,0.0,AlagwaDodoma
Dodoma,Amani,35.87201851333333,-5.959997813333334,0.0,AmaniDodoma
Dodoma,Araa,35.93513295,-5.00470518,0.0,AraaDodoma
Dodoma,Araa Mkunjo,35.93619127,-5.00512835,0.0,Araa MkunjoDodoma
Dodoma,Atta Shule,35.9023252,-4.521169745,0.0,Atta ShuleDodoma
Dodoma,Ausiya,36.13080686000001,-4.94951847,0.0,AusiyaDodoma
Dodoma,Azimio,35.740116663529406,-6.257018097058824,0.0,AzimioDodoma
Dodoma,Bagamoyo,36.12692563,-4.969639215,0.0,BagamoyoDodoma
Dodoma,Balanga,36.046695145,-4.849837099999999,0.0,BalangaDodoma
Dodoma,Bambai,35.89007436,-5.02312108,0.0,BambaiDodoma
Dodoma,Banda La Ngozi,36.23643377,-5.00810682,0.0,Banda La NgoziDodoma
Dodoma,Banguma Shuleni,35.494343455,-5.272521415,0.0,Banguma ShuleniDodoma
Dodoma,Bara-Stendi,35.83543162,-4.730895395000001,0.0,Bara-StendiDodoma
Dodoma,Barabarani,35.893404035,-6.143522367499999,0.0,BarabaraniDodoma
Dodoma,Barazani,35.75892034666666,-5.559559116666667,0.0,BarazaniDodoma
Dodoma,Baura,35.8576348,-4.64336412,0.0,BauraDodoma
Dodoma,Bereko Kurasini,35.74260941,-4.47171414,0.0,Bereko KurasiniDodoma
Dodoma,Bereko Mjini,35.74027574666667,-4.447027563333333,0.0,Bereko MjiniDodoma
Dodoma,Bihawana,35.641745645,-6.27075782,0.0,BihawanaDodoma
Dodoma,Bilisee,35.17411885,-5.4399233,0.0,BiliseeDodoma
Dodoma,Bolisa,35.91328217,-4.63485938,0.0,BolisaDodoma
Dodoma,Boma Ya Ngombe,36.05248174,-4.88268114,0.0,Boma Ya NgombeDodoma
Dodoma,Bomban,35.49022166666666,-5.794825366666667,0.0,BombanDodoma
Dodoma,Bombani,35.884507872222215,-5.553100624444444,0.0,BombaniDodoma
Dodoma,Bondeni,36.702348099999995,-6.439823135,0.0,BondeniDodoma
Dodoma,Boro,35.19925987500001,-5.1280361899999996,0.0,BoroDodoma
Dodoma,Bukulu A,35.761869125000004,-4.60927943,0.0,Bukulu ADodoma
Dodoma,Bukulu B,35.74922859,-4.592159196666667,0.0,Bukulu BDodoma
Dodoma,Bumburyahe,35.77861443333334,-4.541583531666666,0.0,BumburyaheDodoma
Dodoma,Bumbuta A,35.95086671,-4.63837033,0.0,Bumbuta ADodoma
Dodoma,Bumbuta B,35.95241112,-4.62304048,0.0,Bumbuta BDodoma
Dodoma,Bustani,36.23440479999999,-5.00737188,0.0,BustaniDodoma
Dodoma,Butihama,36.14761723,-6.2043761,0.0,ButihamaDodoma
Dodoma,Bwagala,36.42407587,-6.31885413,0.0,BwagalaDodoma
Dodoma,Bwawan,35.43906372,-6.075703093333334,0.0,BwawanDodoma
Dodoma,Bwawani,35.910807825714286,-5.431853112857143,0.0,BwawaniDodoma
Dodoma,Bwawani A,36.21596957,-6.19838334,0.0,Bwawani ADodoma
Dodoma,Bwawani B,36.23490716,-6.17159079,0.0,Bwawani BDodoma
Dodoma,Chadunundu,36.35445404,-6.82826659,0.0,ChadununduDodoma
Dodoma,Chakanga,35.92241253,-4.63423087,0.0,ChakangaDodoma
Dodoma,Chakuku,36.23085932,-5.07991912,0.0,ChakukuDodoma
Dodoma,Chakwe,35.842351515000004,-4.5823188625,0.0,ChakweDodoma
Dodoma,Chalangu A,36.32496122,-6.27968513,0.0,Chalangu ADodoma
Dodoma,Chalula,35.84530266,-6.36082621,0.0,ChalulaDodoma
Dodoma,Chambu,35.62086643,-5.834595545,0.0,ChambuDodoma
Dodoma,Chambuzi,35.8394498,-4.73061402,0.0,ChambuziDodoma
Dodoma,Chamganga,36.203644575,-6.92075408,0.0,ChamgangaDodoma
Dodoma,Chamnye,36.46047834,-6.332290416666666,0.0,ChamnyeDodoma
Dodoma,Champera,36.37031951,-6.504558845,0.0,ChamperaDodoma
Dodoma,Chamtumile,36.39824713,-6.74121708,0.0,ChamtumileDodoma
Dodoma,Chamuwondo,36.18612565,-6.8532034,0.0,ChamuwondoDodoma
Dodoma,Chamwi,35.61665605,-5.65278856,0.0,ChamwiDodoma
Dodoma,Chamwiko,35.75958273,-6.220709149999999,0.0,ChamwikoDodoma
Dodoma,Chamwino,35.8783112425,-6.34236137,0.0,ChamwinoDodoma
Dodoma,Chamwino A,36.555177865000005,-6.5388154499999995,0.0,Chamwino ADodoma
Dodoma,Chang'Ombe,36.437062294782606,-6.433253866086956,0.0,Chang'OmbeDodoma
Dodoma,Chang'Ombe A,36.57570301,-6.47460458,0.0,Chang'Ombe ADodoma
Dodoma,Chang'Ombe B,36.57509285,-6.47685743,0.0,Chang'Ombe BDodoma
Dodoma,Changano,36.36144449,-7.29091915,0.0,ChanganoDodoma
Dodoma,Changombe,35.883611118,-4.909683805999999,0.0,ChangombeDodoma
Dodoma,Changombe B,36.287005,-5.17918519,0.0,Changombe BDodoma
Dodoma,Chanzage,35.93125746,-5.949614415,0.0,ChanzageDodoma
Dodoma,Chapa,35.54906022,-6.19605016,0.0,ChapaDodoma
Dodoma,Chase-Shuleni,35.55483445,-5.59244997,0.0,Chase-ShuleniDodoma
Dodoma,Chawasi,35.844870809999996,-4.561852303333333,0.0,ChawasiDodoma
Dodoma,Cheke,35.83856825,-4.62991116,0.0,ChekeDodoma
Dodoma,Chemch,35.50048192,-5.945960355,0.0,ChemchDodoma
Dodoma,Chengere,35.98316568,-5.0542942,0.0,ChengereDodoma
Dodoma,Chibay,35.68052599,-5.97078433,0.0,ChibayDodoma
Dodoma,Chibefu,35.73212357,-5.5328109350000005,0.0,ChibefuDodoma
Dodoma,Chibwechangula,36.53428933500001,-6.379285435,0.0,ChibwechangulaDodoma
Dodoma,Chidachi,35.657145365000005,-6.45492361,0.0,ChidachiDodoma
Dodoma,Chididimo,35.895293625,-6.151447485,0.0,ChididimoDodoma
Dodoma,Chidumule,36.39695227333334,-6.732324716666667,0.0,ChidumuleDodoma
Dodoma,Chihembe,35.941713666666665,-6.1373025,0.0,ChihembeDodoma
Dodoma,Chihikwi,35.680941340000004,-6.0438557,0.0,ChihikwiDodoma
Dodoma,Chihoni,35.610678817499995,-6.1189907425,0.0,ChihoniDodoma
Dodoma,Chikaluri,35.90700563,-4.7510195,0.0,ChikaluriDodoma
Dodoma,Chikola,35.883052975,-6.66717673,0.0,ChikolaDodoma
Dodoma,Chilam,35.37642134,-6.24376904,0.0,ChilamDodoma
Dodoma,Chilan,35.65776761,-6.53273452,0.0,ChilanDodoma
Dodoma,Chilej,35.346847455,-6.025912785,0.0,ChilejDodoma
Dodoma,Chilenga,36.39856938,-6.73926248,0.0,ChilengaDodoma
Dodoma,Chiloloma,35.97527684,-5.928007741666666,0.0,ChilolomaDodoma
Dodoma,Chimag,35.451608965,-6.3614172149999995,0.0,ChimagDodoma
Dodoma,Chimagae,36.14213232,-6.66839242,0.0,ChimagaeDodoma
Dodoma,Chimen,35.38920338,-6.11365545,0.0,ChimenDodoma
Dodoma,Chimi,35.94480419,-5.02973532,0.0,ChimiDodoma
Dodoma,China,36.111490200000006,-5.050311225,0.0,ChinaDodoma
Dodoma,Chinog,35.5581224,-6.34731754,0.0,ChinogDodoma
Dodoma,Chinoje,36.038804796666675,-6.860561886666667,0.0,ChinojeDodoma
Dodoma,Chinyele,35.82649785,-6.12017504,0.0,ChinyeleDodoma
Dodoma,Chinyi,35.66564574,-6.52528985,0.0,ChinyiDodoma
Dodoma,Chinyika,35.49225181,-5.63375806,0.0,ChinyikaDodoma
Dodoma,Chinzachi,35.60132139,-5.99226595,0.0,ChinzachiDodoma
Dodoma,Chisabi,35.85285839,-6.00670825,0.0,ChisabiDodoma
Dodoma,Chisale,36.28561303,-6.47074838,0.0,ChisaleDodoma
Dodoma,Chisale A,36.28576983,-6.46601538,0.0,Chisale ADodoma
Dodoma,Chisale B,36.28657851,-6.47019987,0.0,Chisale BDodoma
Dodoma,Chisewo,35.76206787666666,-6.056887653333334,0.0,ChisewoDodoma
Dodoma,Chisichili,35.722180286249994,-6.269476736250001,0.0,ChisichiliDodoma
Dodoma,Chita,35.87799398,-6.072637665,0.0,ChitaDodoma
Dodoma,Chitel,35.569050958000005,-5.902574786,0.0,ChitelDodoma
Dodoma,Chiteleche,35.55730953,-6.2960623,0.0,ChitelecheDodoma
Dodoma,Chitereche,35.586666335000004,-6.7078057399999995,0.0,ChiterecheDodoma
Dodoma,Chitumbula,36.07160178,-6.58784635,0.0,ChitumbulaDodoma
Dodoma,Chiujila,36.22396993666666,-6.732011503333332,0.0,ChiujilaDodoma
Dodoma,Chiwanga,35.795526790000004,-6.28008432,0.0,ChiwangaDodoma
Dodoma,Chiwon,35.69504433,-5.85086273,0.0,ChiwonDodoma
Dodoma,Chizomoche,35.639243752,-6.3170920420000005,0.0,ChizomocheDodoma
Dodoma,Chjmen,35.39218619,-6.11248924,0.0,ChjmenDodoma
Dodoma,Choro,35.39019716,-5.2986606,0.0,ChoroDodoma
Dodoma,Cikolola,35.67522325,-6.74698782,0.0,CikololaDodoma
Dodoma,Dar Es Salaam,36.51373405,-7.28083179,0.0,Dar Es SalaamDodoma
Dodoma,Darabi,35.83411272,-4.60935057,0.0,DarabiDodoma
Dodoma,Darajani,35.82764500000001,-4.36052366,0.0,DarajaniDodoma
Dodoma,Dedu,35.373169985000004,-5.29685367,0.0,DeduDodoma
Dodoma,Dinda,36.00076669,-5.11175863,0.0,DindaDodoma
Dodoma,Dirawa,35.82924057,-4.73741578,0.0,DirawaDodoma
Dodoma,Disa Mtaoni,35.82544308833334,-4.4623777250000005,0.0,Disa MtaoniDodoma
Dodoma,Dmp,36.25689504,-6.96435438,0.0,DmpDodoma
Dodoma,Dodomasee,35.40348487,-5.26134387,0.0,DodomaseeDodoma
Dodoma,Dongo,36.22306336,-5.479758646666666,0.0,DongoDodoma
Dodoma,Elimu,35.850079709999996,-6.361322376666666,0.0,ElimuDodoma
Dodoma,Erenzesee,35.63576762,-5.48527401,0.0,ErenzeseeDodoma
Dodoma,Foye,36.11110319,-4.91849955,0.0,FoyeDodoma
Dodoma,Galani A,36.46897449,-6.74665298,0.0,Galani ADodoma
Dodoma,Galani B,36.46895338,-6.74984219,0.0,Galani BDodoma
Dodoma,Ganikwa,36.08833027,-5.77884127,0.0,GanikwaDodoma
Dodoma,Gayu,35.89164946666667,-4.76018619,0.0,GayuDodoma
Dodoma,Gereza-Kinganga,35.7031401,-5.02027777,0.0,Gereza-KingangaDodoma
Dodoma,Ghana,35.89378179,-6.38347804,0.0,GhanaDodoma
Dodoma,Ghana B,35.89355529,-6.38388296,0.0,Ghana BDodoma
Dodoma,Ghung'Ugu,35.9113134,-6.16566651,0.0,Ghung'UguDodoma
Dodoma,Go Down,35.86364715,-5.168674753333334,0.0,Go DownDodoma
Dodoma,Goba,35.71414187,-6.23024315,0.0,GobaDodoma
Dodoma,Gongo,35.76165757,-4.531060999999999,0.0,GongoDodoma
Dodoma,Gongolamboto,36.12489486,-6.20673729,0.0,GongolambotoDodoma
Dodoma,Gubali,35.83451298,-4.5877278525,0.0,GubaliDodoma
Dodoma,Guluma,35.73709867,-4.98634299,0.0,GulumaDodoma
Dodoma,Gumbu-Kati,35.39413854333334,-5.290722893333334,0.0,Gumbu-KatiDodoma
Dodoma,Gwaiba,35.88835142,-5.2206183,0.0,GwaibaDodoma
Dodoma,Hado,35.74471608,-4.536110425,0.0,HadoDodoma
Dodoma,Hamia A,35.399373944999994,-5.66009611,0.0,Hamia ADodoma
Dodoma,Hamia B,35.39450525,-5.647772665,0.0,Hamia BDodoma
Dodoma,Hangwe,36.28922926,-6.47401391,0.0,HangweDodoma
Dodoma,Hasu,35.96042135,-4.78671712,0.0,HasuDodoma
Dodoma,Haubi Maziwani,35.95815256666667,-4.8041387633333335,0.0,Haubi MaziwaniDodoma
Dodoma,Himbo,35.69047713,-5.92027814,0.0,HimboDodoma
Dodoma,Hospit,35.49220852,-6.092707953333334,0.0,HospitDodoma
Dodoma,Huduma,35.38355573,-5.32096303,0.0,HudumaDodoma
Dodoma,Humai Kati,35.77755873,-4.66607474,0.0,Humai KatiDodoma
Dodoma,Humbai,35.64506307,-5.83676262,0.0,HumbaiDodoma
Dodoma,Ibanda,36.306772685,-6.7159277500000005,0.0,IbandaDodoma
Dodoma,Ibungere,35.89531112,-4.4858934,0.0,IbungereDodoma
Dodoma,Idindaumba,36.27853623,-6.74294692,0.0,IdindaumbaDodoma
Dodoma,Idugala,35.57891573,-6.69175327,0.0,IdugalaDodoma
Dodoma,Idunda,36.38297409,-6.70454392,0.0,IdundaDodoma
Dodoma,Idunda Juu,36.37389901,-6.70643417,0.0,Idunda JuuDodoma
Dodoma,Igede,36.63624650000001,-6.90942963,0.0,IgedeDodoma
Dodoma,Igunga A,36.267512409999995,-6.95924611,0.0,Igunga ADodoma
Dodoma,Igunga B,36.26257968,-6.959981475,0.0,Igunga BDodoma
Dodoma,Iguruwi,36.598053,-7.01605033,0.0,IguruwiDodoma
Dodoma,Ihala,35.996608054999996,-7.0264557975,0.0,IhalaDodoma
Dodoma,Ihanza,36.28753265,-6.65218395,0.0,IhanzaDodoma
Dodoma,Ihwa,36.49807768,-7.03154219,0.0,IhwaDodoma
Dodoma,Ikogolo,35.82893524,-6.03472586,0.0,IkogoloDodoma
Dodoma,Ikombo,36.09181555,-5.72582011,0.0,IkomboDodoma
Dodoma,Ikombo A,36.08239992,-5.717684535,0.0,Ikombo ADodoma
Dodoma,Ikombo B,36.08139685,-5.70732162,0.0,Ikombo BDodoma
Dodoma,Ikongola Juu,36.370882495000004,-6.7176128550000005,0.0,Ikongola JuuDodoma
Dodoma,Ikova,35.915779485,-4.7007558199999995,0.0,IkovaDodoma
Dodoma,Ikulu,36.39546395333333,-6.293469306666667,0.0,IkuluDodoma
Dodoma,Ilala,36.22198134,-5.751071125,0.0,IlalaDodoma
Dodoma,Ilasee-Kati,35.34186038,-5.1754343,0.0,Ilasee-KatiDodoma
Dodoma,Ilasi,36.60147684,-7.00520896,0.0,IlasiDodoma
Dodoma,Ilembula,36.343022642,-6.719853276,0.0,IlembulaDodoma
Dodoma,Ilewel,35.33001742,-6.4268492,0.0,IlewelDodoma
Dodoma,Ilewelo,35.84722149,-6.76869239,0.0,IleweloDodoma
Dodoma,Ilolo,36.106820443571436,-6.405259623571429,0.0,IloloDodoma
Dodoma,Ilolo Chini,36.42416531000001,-6.938055970000001,0.0,Ilolo ChiniDodoma
Dodoma,Ilolo Kati,36.42137451,-6.93511564,0.0,Ilolo KatiDodoma
Dodoma,Ilolwi,36.02039908,-4.96328638,0.0,IlolwiDodoma
Dodoma,Imonyo,35.23299908,-6.23322313,0.0,ImonyoDodoma
Dodoma,Ipandu,35.41042463,-6.14134343,0.0,IpanduDodoma
Dodoma,Ipera,36.435279752,-6.887833082,0.0,IperaDodoma
Dodoma,Ipondelo,36.38110968,-6.62896731,0.0,IpondeloDodoma
Dodoma,Iramba,36.21733902666667,-6.8163520166666665,0.0,IrambaDodoma
Dodoma,Iraq,36.14374507,-5.26702545,0.0,IraqDodoma
Dodoma,Irendi A,36.11237521,-4.91391433,0.0,Irendi ADodoma
Dodoma,Irendi B,36.10482049,-4.91923472,0.0,Irendi BDodoma
Dodoma,Irongoriru,36.03207084,-4.723083895,0.0,IrongoriruDodoma
Dodoma,Isalavanu,36.26794749,-6.736101799999999,0.0,IsalavanuDodoma
Dodoma,Isalaza,36.09166016,-6.68921421,0.0,IsalazaDodoma
Dodoma,Isanga,35.79477141,-5.855114715,0.0,IsangaDodoma
Dodoma,Isangha,35.96800505,-6.43049814,0.0,IsanghaDodoma
Dodoma,Isari,35.58061842,-4.81430027,0.0,IsariDodoma
Dodoma,Isasamambu,36.2637186,-6.6629703,0.0,IsasamambuDodoma
Dodoma,Isingu A,36.477806279999996,-6.417203590000001,0.0,Isingu ADodoma
Dodoma,Isingu B,36.48127853,-6.421706185,0.0,Isingu BDodoma
Dodoma,Isusumya,36.23570411,-5.00520209,0.0,IsusumyaDodoma
Dodoma,Isuzaje,36.58713822,-6.50025529,0.0,IsuzajeDodoma
Dodoma,Italaliza,36.272846055,-6.639778485,0.0,ItalalizaDodoma
Dodoma,Italula,36.38718336,-6.7941285350000005,0.0,ItalulaDodoma
Dodoma,Itamya,36.0260709,-4.95031718,0.0,ItamyaDodoma
Dodoma,Itongwi,35.95967189,-4.82609559,0.0,ItongwiDodoma
Dodoma,Itundwi,35.85295085999999,-4.649224739999999,0.0,ItundwiDodoma
Dodoma,Iwanginyi,36.4861532,-6.95335278,0.0,IwanginyiDodoma
Dodoma,Iwelewele,35.630421505,-6.278100474999999,0.0,IweleweleDodoma
Dodoma,Iyenjere,35.90447494,-4.53068888,0.0,IyenjereDodoma
Dodoma,Iyoyo,35.84699094,-6.310468545,0.0,IyoyoDodoma
Dodoma,Jamhuri,35.968551685,-6.224628535000001,0.0,JamhuriDodoma
Dodoma,Jamuhu,35.65983871,-6.3685025799999995,0.0,JamuhuDodoma
Dodoma,Jamuhuri,35.9711842375,-7.1085573349999995,0.0,JamuhuriDodoma
Dodoma,Jenjelima,35.30303885,-5.23837976,0.0,JenjelimaDodoma
Dodoma,Jenjeni,36.12187273,-6.04190109,0.0,JenjeniDodoma
Dodoma,Jinjo Kati,36.16866957,-5.02665129,0.0,Jinjo KatiDodoma
Dodoma,Jobu,35.836900215,-6.490091215,0.0,JobuDodoma
Dodoma,Juhudi,35.800056175,-6.051579828,0.0,JuhudiDodoma
Dodoma,Juhudi Bwawani,36.20716467,-6.12559977,0.0,Juhudi BwawaniDodoma
Dodoma,Kabodi,35.36343358,-5.7302341,0.0,KabodiDodoma
Dodoma,Kagera,35.350510729999996,-6.23930175,0.0,KageraDodoma
Dodoma,Kahama,36.22240778,-6.14672391,0.0,KahamaDodoma
Dodoma,Kalamba Juu,35.93704445,-4.81809006,0.0,Kalamba JuuDodoma
Dodoma,Kalembo,35.91798652,-6.62795484,0.0,KalemboDodoma
Dodoma,Kaloleni,36.30846405,-6.3599299125,0.0,KaloleniDodoma
Dodoma,Kaloleni B,36.630692874999994,-6.45253299,0.0,Kaloleni BDodoma
Dodoma,Kambarage,36.192620535,-6.5929007649999996,0.0,KambarageDodoma
Dodoma,Kambarage A,36.22908373,-6.1579744000000005,0.0,Kambarage ADodoma
Dodoma,Kambi Ya Fisi,35.759560306666664,-4.618890503333333,0.0,Kambi Ya FisiDodoma
Dodoma,Kambi Ya Nyasa,35.90821744,-5.30586932,0.0,Kambi Ya NyasaDodoma
Dodoma,Kandamiza,36.30296453,-5.16822558,0.0,KandamizaDodoma
Dodoma,Kanindo,35.62944521,-4.90388311,0.0,KanindoDodoma
Dodoma,Kanisa,35.66447151,-5.9467599149999995,0.0,KanisaDodoma
Dodoma,Kanisani,35.92440725,-6.48015161,0.0,KanisaniDodoma
Dodoma,Karume,35.98719692894737,-5.892162126842105,0.0,KarumeDodoma
Dodoma,Kati,36.14015934090909,-5.964805752272728,0.0,KatiDodoma
Dodoma,Kaunda,35.7760499,-6.44158667375,0.0,KaundaDodoma
Dodoma,Kawawa,35.95804843592594,-6.110351196296297,0.0,KawawaDodoma
Dodoma,Kazania,36.05827923,-6.41833136,0.0,KazaniaDodoma
Dodoma,Kazemgulu,36.18204823,-6.20373262,0.0,KazemguluDodoma
Dodoma,Khatsa,35.14748498,-5.10424528,0.0,KhatsaDodoma
Dodoma,Kibalali,36.42909418,-7.22046025,0.0,KibalaliDodoma
Dodoma,Kibandani,35.897635195,-4.63512068,0.0,KibandaniDodoma
Dodoma,Kibandani-Kati,35.90017905,-4.63205713,0.0,Kibandani-KatiDodoma
Dodoma,Kibaoni,35.76082730666666,-5.716054553333334,0.0,KibaoniDodoma
Dodoma,Kibaya,36.08956914,-4.92755116,0.0,KibayaDodoma
Dodoma,Kiboryo,36.08074749,-4.75314515,0.0,KiboryoDodoma
Dodoma,Kichan,35.46923483333334,-5.9257951633333334,0.0,KichanDodoma
Dodoma,Kichangani,36.57642013,-6.48929513,0.0,KichanganiDodoma
Dodoma,Kidabaga,36.32804043,-6.74609451,0.0,KidabagaDodoma
Dodoma,Kidongo Cheusi,35.86203165,-4.94639098,0.0,Kidongo CheusiDodoma
Dodoma,Kidunda,36.38281378,-6.70461672,0.0,KidundaDodoma
Dodoma,Kiegea,36.23769402,-6.16365631,0.0,KiegeaDodoma
Dodoma,Kiegea Shuleni,36.238416605,-6.16023956,0.0,Kiegea ShuleniDodoma
Dodoma,Kifukulwa,36.02491550000001,-4.9431131,0.0,KifukulwaDodoma
Dodoma,Kigamb,35.54998978,-6.20596095,0.0,KigambDodoma
Dodoma,Kigamboni,36.17687192,-6.09344308,0.0,KigamboniDodoma
Dodoma,Kiheka,36.53212012,-7.03989017,0.0,KihekaDodoma
Dodoma,Kihesa,36.51392259,-7.27799589,0.0,KihesaDodoma
Dodoma,Kijaji,35.913001075,-4.6480783,0.0,KijajiDodoma
Dodoma,Kijiweni,35.78779121,-4.5615533175000005,0.0,KijiweniDodoma
Dodoma,Kikurunge,36.37822358,-6.71203255,0.0,KikurungeDodoma
Dodoma,Kikurunge Chini,36.379468083333336,-6.710255190000001,0.0,Kikurunge ChiniDodoma
Dodoma,Kikuyu,35.390807839999994,-6.29130936,0.0,KikuyuDodoma
Dodoma,Kikwete,35.94737333,-6.395372943333334,0.0,KikweteDodoma
Dodoma,Kilimahewa,36.284707628,-6.645369991999999,0.0,KilimahewaDodoma
Dodoma,Kilimani,36.40663885,-6.44371772,0.0,KilimaniDodoma
Dodoma,Kilimba A,35.23821619,-5.16824788,0.0,Kilimba ADodoma
Dodoma,Kilimba B,35.23839901,-5.17273717,0.0,Kilimba BDodoma
Dodoma,Kimambo,35.85580426,-5.40549644,0.0,KimamboDodoma
Dodoma,Kimuli,36.32662162,-6.7406933,0.0,KimuliDodoma
Dodoma,Kimunda,35.84266267,-4.51113745,0.0,KimundaDodoma
Dodoma,Kindu,36.083445525,-5.114297035,0.0,KinduDodoma
Dodoma,Kinyasi Kati,36.038598394999994,-4.731100915000001,0.0,Kinyasi KatiDodoma
Dodoma,Kioli,35.69661462,-5.40699126,0.0,KioliDodoma
Dodoma,Kisaki Kati,35.96031562,-4.56427431,0.0,Kisaki KatiDodoma
Dodoma,Kisimani,35.966159276666666,-6.020216073333333,0.0,KisimaniDodoma
Dodoma,Kisondoko,36.2204264325,-4.732669995,0.0,KisondokoDodoma
Dodoma,Kitake,35.94472591,-5.03471616,0.0,KitakeDodoma
Dodoma,Kitengeni,36.29864953,-5.17059869,0.0,KitengeniDodoma
Dodoma,Kituoni,36.53702823,-6.47942852,0.0,KituoniDodoma
Dodoma,Kivuko,35.684399915,-5.9236673,0.0,KivukoDodoma
Dodoma,Kivukoni,36.419170385,-5.917979235000001,0.0,KivukoniDodoma
Dodoma,Kivukooni,35.75516839,-6.49255592,0.0,KivukooniDodoma
Dodoma,Kiwanja Cha Mbuni,35.90744514,-4.60073745,0.0,Kiwanja Cha MbuniDodoma
Dodoma,Kizilanzala,36.38647415,-6.787855145,0.0,KizilanzalaDodoma
Dodoma,Kizota,35.987191509999995,-6.232840329999999,0.0,KizotaDodoma
Dodoma,Kodimo,35.96611957,-5.14074084,0.0,KodimoDodoma
Dodoma,Kolimba,35.9408085075,-6.31743293,0.0,KolimbaDodoma
Dodoma,Kongwa,35.318556863333335,-5.385327283333333,0.0,KongwaDodoma
Dodoma,Kubi,35.25522073,-5.56841895,0.0,KubiDodoma
Dodoma,Kunai,35.88095898,-4.8796872449999995,0.0,KunaiDodoma
Dodoma,Kunduchi,35.76455197,-5.05928036,0.0,KunduchiDodoma
Dodoma,Kungulu,36.13271479,-4.94390025,0.0,KunguluDodoma
Dodoma,Kurasini,35.745982495,-4.466205,0.0,KurasiniDodoma
Dodoma,Kurio-Kati,35.402339205000004,-5.2458285,0.0,Kurio-KatiDodoma
Dodoma,Kurio-Tamka,35.34639011,-5.24026034,0.0,Kurio-TamkaDodoma
Dodoma,Kusenha,35.761061874999996,-6.309669964999999,0.0,KusenhaDodoma
Dodoma,Kusila,36.12455604,-5.80322139,0.0,KusilaDodoma
Dodoma,Kuuta,35.953612396666664,-4.773739503333332,0.0,KuutaDodoma
Dodoma,Kwadelo Mjini,36.14400665666667,-4.903126673333333,0.0,Kwadelo MjiniDodoma
Dodoma,Kwadino,35.997985220000004,-4.521376989999999,0.0,KwadinoDodoma
Dodoma,Kwampichi,36.09804049,-4.92292759,0.0,KwampichiDodoma
Dodoma,Kwamsami,36.12703842,-5.014824485,0.0,KwamsamiDodoma
Dodoma,Kwankwanya,35.798161936666666,-4.44565817,0.0,KwankwanyaDodoma
Dodoma,Kwariji,36.05854811,-4.84245745,0.0,KwarijiDodoma
Dodoma,Lake Manyara,35.86348495,-5.973167785,0.0,Lake ManyaraDodoma
Dodoma,Lembo,35.740154073333336,-4.55213765,0.0,LemboDodoma
Dodoma,Ludega,36.36166158,-7.01632882,0.0,LudegaDodoma
Dodoma,Lufita,36.437827915,-7.224773325,0.0,LufitaDodoma
Dodoma,Lukali,35.51007372,-5.7245550000000005,0.0,LukaliDodoma
Dodoma,Lunda,35.91513169,-4.64303471,0.0,LundaDodoma
Dodoma,Lupeta,36.542069795,-6.3900779,0.0,LupetaDodoma
Dodoma,Lupilo,35.95259677,-6.1332914800000005,0.0,LupiloDodoma
Dodoma,Lusaka,35.99887343,-4.7090484,0.0,LusakaDodoma
Dodoma,Lusangi,35.9471015225,-4.775254135,0.0,LusangiDodoma
Dodoma,Lusind,35.72995221,-6.020802148333334,0.0,LusindDodoma
Dodoma,Lusinde,35.93598330809523,-6.262374419047619,0.0,LusindeDodoma
Dodoma,Lutwina,36.415606545,-6.93048337,0.0,LutwinaDodoma
Dodoma,Luvai,35.97343369,-5.00056581,0.0,LuvaiDodoma
Dodoma,Luvai A,35.841409505,-4.522631315,0.0,Luvai ADodoma
Dodoma,Lwihomelo,36.09820036,-6.73893391,0.0,LwihomeloDodoma
Dodoma,Maata A,36.16489341,-6.09928949,0.0,Maata ADodoma
Dodoma,Mabatini,36.09527761,-6.58630048,0.0,MabatiniDodoma
Dodoma,Mabatini A,36.3954871,-6.65973396,0.0,Mabatini ADodoma
Dodoma,Mabatini B,36.39353266,-6.65674692,0.0,Mabatini BDodoma
Dodoma,Mabwe,35.38290636,-6.09773556,0.0,MabweDodoma
Dodoma,Mabwe Matitu,36.57697933,-6.48020744,0.0,Mabwe MatituDodoma
Dodoma,Machaka,35.835270394999995,-6.126514545,0.0,MachakaDodoma
Dodoma,Machinjoni,35.819184756666665,-4.49769917,0.0,MachinjoniDodoma
Dodoma,Machombe,35.69961898,-4.79805696,0.0,MachombeDodoma
Dodoma,Madaraka,35.90440634,-6.34618089,0.0,MadarakaDodoma
Dodoma,Madege A,35.83368401,-4.33542499,0.0,Madege ADodoma
Dodoma,Madisa A,35.86009009,-4.46142078,0.0,Madisa ADodoma
Dodoma,Madisa B,35.87001389,-4.45780653,0.0,Madisa BDodoma
Dodoma,Madong'A,36.39803562,-6.96998749,0.0,Madong'ADodoma
Dodoma,Maduka,35.4749646025,-6.077344245,0.0,MadukaDodoma
Dodoma,Madukani,36.077669518571426,-5.3710199264285725,0.0,MadukaniDodoma
Dodoma,Madukani Kati,36.05116632,-4.86045141,0.0,Madukani KatiDodoma
Dodoma,Maduma,35.86495986,-6.4089276,0.0,MadumaDodoma
Dodoma,Madumbi,35.77849708,-5.05422279,0.0,MadumbiDodoma
Dodoma,Maendeleo,35.85304104,-6.14837132,0.0,MaendeleoDodoma
Dodoma,Mafuto,36.6342936,-6.75409566,0.0,MafutoDodoma
Dodoma,Magandi,36.08202928,-5.155740945,0.0,MagandiDodoma
Dodoma,Magebuta,36.087754239999995,-4.77689749,0.0,MagebutaDodoma
Dodoma,Mageuzi A,36.14687162,-6.20264852,0.0,Mageuzi ADodoma
Dodoma,Magobeka,36.38329862,-6.36933415,0.0,MagobekaDodoma
Dodoma,Magoma,35.90131535,-5.79444315,0.0,MagomaDodoma
Dodoma,Magomeni,36.130662315,-6.2074349575,0.0,MagomeniDodoma
Dodoma,Magui,35.872670174999996,-4.692431,0.0,MaguiDodoma
Dodoma,Magunga,36.29674429,-6.67611329,0.0,MagungaDodoma
Dodoma,Magungu,35.939006332,-6.134212912000001,0.0,MagunguDodoma
Dodoma,Majeng,35.55647143,-6.41800676,0.0,MajengDodoma
Dodoma,Majengo,36.09620761937501,-6.0246519696875005,0.0,MajengoDodoma
Dodoma,Majengo Mapya,36.15406092,-5.656153379999999,0.0,Majengo MapyaDodoma
Dodoma,Makalvati,36.27137039,-6.11817654,0.0,MakalvatiDodoma
Dodoma,Makand,35.3482664,-5.71748813,0.0,MakandDodoma
Dodoma,Makang'Wa,35.86853887,-6.42505871,0.0,Makang'WaDodoma
Dodoma,Makao Mapya,35.72792889,-4.53668004,0.0,Makao MapyaDodoma
Dodoma,Makole,36.50675364,-6.7159692,0.0,MakoleDodoma
Dodoma,Makorongo A,35.641495594999995,-5.530620655,0.0,Makorongo ADodoma
Dodoma,Makorongo B,35.64147501,-5.52235752,0.0,Makorongo BDodoma
Dodoma,Makulu,35.924526738750004,-6.300484419999999,0.0,MakuluDodoma
Dodoma,Makulu A,36.02221479,-5.62847609,0.0,Makulu ADodoma
Dodoma,Makuru,35.91134145714285,-6.087070437142857,0.0,MakuruDodoma
Dodoma,Makutupa,36.07198619,-6.58705764,0.0,MakutupaDodoma
Dodoma,Makwene,36.30413726,-6.46740217,0.0,MakweneDodoma
Dodoma,Malecela,35.89752589,-5.9403034266666666,0.0,MalecelaDodoma
Dodoma,Malech,35.683876425,-6.072468425,0.0,MalechDodoma
Dodoma,Maloya,35.802871456000005,-4.542330292,0.0,MaloyaDodoma
Dodoma,Mamayangu,36.3827364,-6.60131986,0.0,MamayanguDodoma
Dodoma,Mambu,35.33445014,-5.39675766,0.0,MambuDodoma
Dodoma,Mamoma Kolongoni,36.10436466,-5.77820122,0.0,Mamoma KolongoniDodoma
Dodoma,Manankwa,35.24018083,-5.17917619,0.0,ManankwaDodoma
Dodoma,Mandel,35.492528078,-6.274078074,0.0,MandelDodoma
Dodoma,Mandela,35.939054389999995,-6.311727446666667,0.0,MandelaDodoma
Dodoma,Mangwe,36.665267035,-6.41434763,0.0,MangweDodoma
Dodoma,Manyata,36.71250846,-6.43545308,0.0,ManyataDodoma
Dodoma,Manzese,36.51640562,-7.30048157,0.0,ManzeseDodoma
Dodoma,Manzilanzi A,36.24520535,-6.01976068,0.0,Manzilanzi ADodoma
Dodoma,Mapamb,35.5061134,-6.14182569,0.0,MapambDodoma
Dodoma,Mapamh,35.67256754,-5.95584258,0.0,MapamhDodoma
Dodoma,Mapang,35.56088062,-6.34593479,0.0,MapangDodoma
Dodoma,Maperi,35.84501751,-4.72408963,0.0,MaperiDodoma
Dodoma,Mapind,35.388338235000006,-6.02773304,0.0,MapindDodoma
Dodoma,Mapindunzi,35.76474802,-6.66358649,0.0,MapindunziDodoma
Dodoma,Mapinduzi,35.877111400909094,-6.093804776363637,0.0,MapinduziDodoma
Dodoma,Maramanda,35.45408504,-5.56787602,0.0,MaramandaDodoma
Dodoma,Marangu,36.1954218,-5.08018422,0.0,MaranguDodoma
Dodoma,Marumba,35.9632128925,-4.7094869500000005,0.0,MarumbaDodoma
Dodoma,Masange,35.80674868,-4.598310870714286,0.0,MasangeDodoma
Dodoma,Masena A,36.403174315,-6.657169735,0.0,Masena ADodoma
Dodoma,Maseneka,35.89977406,-5.10612102,0.0,MasenekaDodoma
Dodoma,Massa,36.40880308,-6.9678703550000005,0.0,MassaDodoma
Dodoma,Maswala,36.50644912,-6.655849195,0.0,MaswalaDodoma
Dodoma,Matangizi,35.628894814999995,-5.99818113,0.0,MatangiziDodoma
Dodoma,Matemero,36.12587186,-6.55318602,0.0,MatemeroDodoma
Dodoma,Matibwi,35.94835587,-4.70835038,0.0,MatibwiDodoma
Dodoma,Matitu,35.70024321,-5.93073525,0.0,MatituDodoma
Dodoma,Matonga,36.31220500333333,-6.631607416666667,0.0,MatongaDodoma
Dodoma,Matongoni,35.42277251,-5.22286211,0.0,MatongoniDodoma
Dodoma,Matope,35.23901575,-5.97252746,0.0,MatopeDodoma
Dodoma,Matugutu,36.443778545,-6.8006913,0.0,MatugutuDodoma
Dodoma,Matuneni,36.09014783,-4.748560255,0.0,MatuneniDodoma
Dodoma,Matunga,36.025940860000006,-4.732063800000001,0.0,MatungaDodoma
Dodoma,Maua,36.609842362500004,-6.979918082499999,0.0,MauaDodoma
Dodoma,Mauno Kati,35.995873195,-4.646680815,0.0,Mauno KatiDodoma
Dodoma,Mawasiliyano,36.00666434,-4.70968483,0.0,MawasiliyanoDodoma
Dodoma,Maweli,35.99210844,-4.65258865,0.0,MaweliDodoma
Dodoma,Mayeto,35.91678253333333,-5.895504589999999,0.0,MayetoDodoma
Dodoma,Mazae Kati,36.4621909,-6.34310689,0.0,Mazae KatiDodoma
Dodoma,Mazeng,35.594822715,-6.370575485,0.0,MazengDodoma
Dodoma,Mazengi,35.76788503,-6.42231781,0.0,MazengiDodoma
Dodoma,Mazengo,35.87590579318182,-6.191266071818182,0.0,MazengoDodoma
Dodoma,Mbelezungu B,36.27380844,-6.088194799999999,0.0,Mbelezungu BDodoma
Dodoma,Mbije,36.16636766,-6.708060799999998,0.0,MbijeDodoma
Dodoma,Mbugani,35.875999895,-5.44927616,0.0,MbuganiDodoma
Dodoma,Mbuyahela,36.39597104,-6.73340557,0.0,MbuyahelaDodoma
Dodoma,Mbuyun,35.391199105,-6.017030549999999,0.0,MbuyunDodoma
Dodoma,Mbuyuni,35.998919728000004,-5.896163957000001,0.0,MbuyuniDodoma
Dodoma,Mchafukoge,35.82523225,-4.45315213,0.0,MchafukogeDodoma
Dodoma,Mdawini,36.553826265,-6.39797963,0.0,MdawiniDodoma
Dodoma,Mduwawi,35.86263076,-5.07074681,0.0,MduwawiDodoma
Dodoma,Membe,35.90951251,-5.46006287,0.0,MembeDodoma
Dodoma,Mfiro,36.507784145,-6.92939027,0.0,MfiroDodoma
Dodoma,Mgandu,35.93708518,-6.13763449,0.0,MganduDodoma
Dodoma,Mgombola,35.89178731,-6.05650946,0.0,MgombolaDodoma
Dodoma,Mgomol,35.69479438,-5.86452926,0.0,MgomolDodoma
Dodoma,Mgomole,35.70101314,-5.53815075,0.0,MgomoleDodoma
Dodoma,Mgomwa,35.65755782,-6.52627233,0.0,MgomwaDodoma
Dodoma,Mgondo,36.16864553,-6.2784474,0.0,MgondoDodoma
Dodoma,Mgungani,35.84845084,-4.469563596666666,0.0,MgunganiDodoma
Dodoma,Mhanga,35.626112265,-5.82928927,0.0,MhangaDodoma
Dodoma,Mianzi,35.54668168,-5.46339609,0.0,MianziDodoma
Dodoma,Miembe,35.413707630000005,-5.9948191500000005,0.0,MiembeDodoma
Dodoma,Miembeni,35.84194539999999,-5.8173871,0.0,MiembeniDodoma
Dodoma,Miganga,35.70693656,-6.21927838,0.0,MigangaDodoma
Dodoma,Mikoro,35.47402274,-6.08759658,0.0,MikoroDodoma
Dodoma,Minyinga,36.1945552,-6.14614159,0.0,MinyingaDodoma
Dodoma,Miondo,35.45007324,-5.83318893,0.0,MiondoDodoma
Dodoma,Mirembe,35.43698745,-5.22752333,0.0,MirembeDodoma
Dodoma,Misheni,35.99051303666667,-5.834025772222223,0.0,MisheniDodoma
Dodoma,Misheni B,36.70706405,-6.44635145,0.0,Misheni BDodoma
Dodoma,Mission,35.975633675714285,-6.292700227142857,0.0,MissionDodoma
Dodoma,Mitati,35.830090670000004,-4.4273555075,0.0,MitatiDodoma
Dodoma,Mitati Disa,35.83424112,-4.48542747,0.0,Mitati DisaDodoma
Dodoma,Miyengweni,36.05022935,-6.81707677,0.0,MiyengweniDodoma
Dodoma,Miyond,35.45135846,-5.82338063,0.0,MiyondDodoma
Dodoma,Mjegwa,36.37842073,-6.58960822,0.0,MjegwaDodoma
Dodoma,Mji Mpya,36.22353862,-6.2320819400000005,0.0,Mji MpyaDodoma
Dodoma,Mji Mpya B,35.672300265000004,-6.213883689999999,0.0,Mji Mpya BDodoma
Dodoma,Mji Mw,35.42928533,-6.31967351,0.0,Mji MwDodoma
Dodoma,Mjimpya,36.191121295,-6.152585275,0.0,MjimpyaDodoma
Dodoma,Mjini,35.99565456,-6.134203056666666,0.0,MjiniDodoma
Dodoma,Mjini Chini,36.3721665,-6.709533863333333,0.0,Mjini ChiniDodoma
Dodoma,Mjini Juu,36.366192376666675,-6.7135086500000005,0.0,Mjini JuuDodoma
Dodoma,Mkalama,35.8544866,-5.398929675,0.0,MkalamaDodoma
Dodoma,Mkanda,35.800056035,-5.78829919,0.0,MkandaDodoma
Dodoma,Mkapa,36.10768701,-6.1316515175,0.0,MkapaDodoma
Dodoma,Mkekena,35.922060996666666,-4.701992576666666,0.0,MkekenaDodoma
Dodoma,Mkoka,36.16017487428571,-6.135267942857142,0.0,MkokaDodoma
Dodoma,Mkombi,35.68533575,-6.63211597,0.0,MkombiDodoma
Dodoma,Mkombo,35.531938675,-6.20098977,0.0,MkomboDodoma
Dodoma,Mkombola,35.528072995,-6.068858565,0.0,MkombolaDodoma
Dodoma,Mkombozi,35.910870565,-5.990665357499999,0.0,MkomboziDodoma
Dodoma,Mkomin,35.38524494,-6.14227275,0.0,MkominDodoma
Dodoma,Mkoyo,35.87851934,-6.30942508,0.0,MkoyoDodoma
Dodoma,Mkundulu,35.94643409333333,-4.6103317299999995,0.0,MkunduluDodoma
Dodoma,Mkwaju,35.46063652,-6.0758281,0.0,MkwajuDodoma
Dodoma,Mkwatani,35.97038276,-6.67906689,0.0,MkwataniDodoma
Dodoma,Mkwawa,35.87475561333333,-6.5025968233333336,0.0,MkwawaDodoma
Dodoma,Mlama,36.358587979999996,-7.021599800000001,0.0,MlamaDodoma
Dodoma,Mlangali,36.43450991,-7.22681432,0.0,MlangaliDodoma
Dodoma,Mleba,35.40121307,-5.24237727,0.0,MlebaDodoma
Dodoma,Mlema,35.69552087,-5.86131556,0.0,MlemaDodoma
Dodoma,Mlemu,35.605149010000005,-5.993969235,0.0,MlemuDodoma
Dodoma,Mliman,35.607391682499994,-6.1974423425000005,0.0,MlimanDodoma
Dodoma,Mlimani,35.629120040000004,-6.578102149999999,0.0,MlimaniDodoma
Dodoma,Mlimwa,35.91841633,-5.46921693,0.0,MlimwaDodoma
Dodoma,Mloa,35.26656341,-5.920765635,0.0,MloaDodoma
Dodoma,Mluwa,36.59077879,-6.73412166,0.0,MluwaDodoma
Dodoma,Mnadan,35.41971602833333,-5.9221595633333335,0.0,MnadanDodoma
Dodoma,Mnadani,36.08568989625,-6.555086210000001,0.0,MnadaniDodoma
